MLS ID,Sale Price,Close Date,Address,Zip Code,Total Sq Ft,Lot Size,Latitude,Longitude,High School,High School Rank,Middle School,Middle School Rank,Elementary School,Elementary School Rank,dollar/sqft,Walk Score
2001944,240000.0,2021-03-15,4917 BlueStem DR,80917,1170.0,711.0,38.8976243,-104.7370736,Doherty High School,2.0,Russell Middle School,2.0,Carver Elementary School,1.0,205.12820512820514,53
8359484,237500.0,2021-03-12,54 Villa DR,81001,2087.0,6509.0,38.8654252,-104.8633623,Coronado High School,3.0,Holmes Middle School,3.0,Howbert Elementary School,3.0,113.79971250598946,10
7312436,275000.0,2021-03-15,132 Hayden ST,80813,2503.0,9583.0,38.750711,-105.176383,Cripple Creek-Victor Junior-Senior High School,1.0,,,Cresson Elementary School,1.0,109.86815821014783,34
1398523,566455.0,2021-03-18,6596 Wolf Gulch DR,80924,4714.0,9088.0,38.9603997,-104.703074,Liberty High School,4.0,Chinook Trail Middle School,,Legacy Peak Elementary School,3.0,120.16440390326686,6
4306524,410000.0,2021-03-12,6562 Tillamook DR,80925,1949.0,6600.0,38.8338816,-104.8213634,Palmer High School,3.0,,2.0,Coperni 2,,210.3642893791688,74
3210548,425000.0,2021-03-17,10146 Moorcroft DR,80831,2848.0,11250.0,38.9765231,-104.6282302,Falcon High School,3.0,North Middle School,3.0,,3.0,149.22752808988764,1
3748005,157000.0,2021-03-16,434 Valley Hi CR #D-24,80910,1072.0,0.0,38.8247919,-104.7658446,Eastlake High School Of Colorado Springs,0.0,Falcon Middle School,1.0,Bennett Ranch Elementary School,0.0,146.455223880597,22
8652211,470.0,2021-03-19,8754 Royal Melbourne CR,80831,3840.0,11171.0,38.96205020000001,-104.5983739,Falcon High School,3.0,Jack Swigert Aerospace Academy,3.0,Monroe Elementary School,3.0,0.12239583333333333,2
8536892,340000.0,2021-03-18,5140 Crestwood DR,80918,1824.0,7200.0,38.9056075,-104.7660181,Doherty High School,2.0,Falcon Middle School,2.0,Woodmen Hills Elementary School,2.0,186.40350877192984,67
4746963,159000.0,2021-03-12,6264 Village LN,80918,602.0,325.0,38.9240853,-104.7948902,Aspen Valley Campus,2.0,Russell Middle School,2.0,Fremont Elementary School,2.0,264.1196013289036,45
8400771,194400.0,2021-03-19,621 W 7th ST,81003,864.0,3360.0,38.7965466,-104.8354748,Cheyenne Mountain High School,5.0,Russell Middle School,5.0,King Elementary School,5.0,225.0,20
5879449,120000.0,2021-03-19,900 Saturn DR #109,80905,728.0,120.0,38.8070489,-104.8441544,Cheyenne Mountain High School,5.0,Cheyenne Mountain Junior High School,5.0,Broadmoor Elementary School,4.0,164.83516483516485,51
2495585,175000.0,2021-03-19,4549 Lamplighter CR,80916,1020.0,496.0,38.798103,-104.743196,Sierra High School,1.0,Cheyenne Mountain Junior High School,1.0,Skyway Park Elementary School,1.0,171.5686274509804,49
2368569,305000.0,2021-03-23,1127 Iowa AV,80909,1246.0,7500.0,38.84874689999999,-104.7897216,Achieve Online,1.0,Panorama Middle School,1.0,Bricker Elementary School,1.0,244.78330658105938,46
1995375,139900.0,2021-03-22,1207 5th ST,81001,1003.0,3600.0,38.2721898,-104.5901919,Aim Global,0.0,Galileo School Of Math And Science,0.0,Queen Palmer Elementary School,1.0,139.48155533399802,54
4242999,95000.0,2021-03-17,205 W 21st ST,81003,784.0,100.0,38.84253959999999,-104.8576825,Zebulon Pike,,Risley International Academy Of Innovation,3.0,Bradford Elementary School,1.0,121.1734693877551,69
6036339,150500.0,2021-03-15,1137 Van Buren ST,81004,780.0,9365.4,38.8677835,-104.8037211,,3.0,West Middle School,2.0,West Elementary School,4.0,192.94871794871796,54
2022194,140000.0,2021-03-16,411 Lakewood CR #C403,80910,576.0,757.0,38.8227446,-104.7597305,Launch High School,3.0,Mann Middle School,3.0,Stratton Elementary School,0.0,243.05555555555554,47
2300782,156000.0,2021-03-15,2509 E Evans AV,81004,1190.0,3938.0,38.789482,-104.864055,Atlas Preparatory High School,5.0,Atlas Preparatory Middle School,5.0,Monroe Elementary School,,131.0924369747899,22
9517084,227000.0,2021-03-15,734 E Cache La Poudre ST,80903,1296.0,6136.0,38.8464043,-104.8109667,Cheyenne Mountain High School,1.0,Cheyenne Mountain Junior High School,2.0,Canon Elementary School,4.0,175.15432098765433,54
4063233,215000.0,2021-03-17,4831 Sonata DR #A,80918,780.0,810.0,38.9017849,-104.76517,Community Prep Charter School,2.0,North Middle School,2.0,,3.0,275.64102564102564,70
2537977,120000.0,2021-03-17,5034 El Camino DR #29,80918,561.0,197.0,38.9034103,-104.7714531,Doherty High School,2.0,Russell Middle School,2.0,Columbia Elementary School,2.0,213.90374331550802,72
3996415,280000.0,2021-03-22,360 W Rockrimmon BL #B,80919,1872.0,1.0,38.9288562,-104.8335827,Doherty High School,4.0,Russell Middle School,4.0,Grant Elementary School,4.0,149.57264957264957,51
9397595,85000.0,2021-03-18,130 W 3rd ST,81089,1013.0,8712.0,37.6263852,-104.7837042,Civa Charter Academy,1.0,Eagleview Middle School,,Fremont Elementary School,,83.90918065153011,60
9951614,211000.0,2021-03-19,6611 Proud Eagle CT,80915,960.0,720.0,38.850986,-104.703877,John Mall High School,2.0,,3.0,Rockrimmon Elementary School,2.0,219.79166666666666,41
9511797,245000.0,2021-03-15,1804 Englewood DR,81005,2066.0,6534.0,38.23622719999999,-104.6523827,Power Technical Early College,1.0,Horizon Middle School,1.0,Peakview School,1.0,118.58664085188771,41
6233204,295000.0,2021-03-15,718 Bryce DR,80910,1062.0,6890.0,38.8215759,-104.7828381,South High School,0.0,Pueblo Academy Of Arts,,,1.0,277.77777777777777,46
3062088,306000.0,2021-03-19,1327 Kern ST,80915,2303.0,8600.0,38.8532665,-104.7397205,Eastlake High School Of Colorado Springs,1.0,Carmel Middle School,1.0,McAuliffe Elementary,0.0,132.87016934433348,24
7641404,335000.0,2021-03-19,4324 Witches Hollow LN,80911,1648.0,5227.2,38.7697952,-104.7441867,Mitchell High School,1.0,,,Pueblo Charter School For The Arts & Sciences,,203.2766990291262,29
2432288,230000.0,2021-03-23,3406 Queen Anne WY,80917,1131.0,638.0,38.885015,-104.762637,Discovery High School,2.0,Jack Swigert Aerospace Academy,1.0,Adams Elementary School,3.0,203.3598585322723,61
4808193,250000.0,2021-03-17,210 S Second ST,80860,1188.0,3049.0,38.7082243,-105.139167,Doherty High School,1.0,Sproul Junior High School,,Wilson Elementary School,1.0,210.43771043771045,17
8690811,330000.0,2021-03-16,4555 Borden DR,80911,1548.0,5000.0,38.7673718,-104.74405,Cripple Creek-Victor Junior-Senior High School,1.0,,,Widefield District 3 Preschool,,213.1782945736434,35
2691609,281000.0,2021-03-12,3976 Riviera GR #203,80922,1276.0,685.0,38.88881070000001,-104.7043335,Discovery High School,2.0,Sabin Middle School,3.0,,4.0,220.21943573667713,29
5275134,281000.0,2021-03-19,36 Hayes DR,80911,907.0,6120.0,38.7390647,-104.7275987,Sand Creek High School,2.0,,2.0,Grant Elementary School,2.0,309.81256890848954,51
7500682,362000.0,2021-03-22,5777 Caithness PL,80923,1475.0,3404.0,38.9172254,-104.68520490000002,Widefield High School,3.0,Sproul Junior High School,3.0,Cresson Elementary School,4.0,245.42372881355934,4
3822226,355000.0,2021-03-19,10219 Intrepid WY,80925,1733.0,9543.0,38.7356228,-104.6380257,Vista Ridge High School,2.0,,3.0,Widefield District 3 Preschool,,204.8470859780727,6
2770106,350000.0,2021-03-19,7350 Woody Creek DR,80911,2529.0,6760.0,38.7242287,-104.6839953,Mesa Ridge High School,2.0,Horizon Middle School,3.0,,3.0,138.39462238038752,4
9782916,370500.0,2021-03-22,6920 Weeping Willow DR,80925,1744.0,14374.8,38.7340497,-104.6532025,Mesa Ridge High School,2.0,Watson Junior High School,3.0,Springs Ranch Elementary School,,212.44266055045873,0
5279310,345000.0,2021-03-16,9314 Prairie Dunes RD,80831,1632.0,6646.0,38.96720620000001,-104.5948681,Mesa Ridge High School,3.0,Skyview Middle School,3.0,Venetucci Elementary School,4.0,211.39705882352942,3
5954378,349900.0,2021-03-22,39335 Truckton RD,80833,1944.0,1562497.2,38.7381942,-104.0994097,Falcon High School,,Janitell Junior High School,,Ridgeview Elementary School,,179.9897119341564,0
5615163,325000.0,2021-03-09,508 Rowe LN,80911,2394.0,7900.0,38.7279834,-104.7088246,,2.0,Janitell Junior High School,3.0,Grand Mountain School,3.0,135.75605680868838,9
2685285,247600.0,2021-03-15,2104 Rosewood LN,81005,2304.0,6534.0,38.9308739,-104.7913459,Mesa Ridge High School,2.0,Janitell Junior High School,3.0,,3.0,107.46527777777777,51
8015012,375000.0,2021-03-22,321 LaClede AV,80905,1060.0,6500.0,38.8073133,-104.8350875,Aspen Valley Campus,5.0,Falcon Middle School,5.0,Sunrise Elementary School,4.0,353.77358490566036,61
9168228,319122.0,2021-03-16,5346 Passport VW,80922,1812.0,2396.0,38.8338816,-104.8213634,The Vanguard School (High),3.0,,2.0,Grand Mountain School,,176.1158940397351,74
6608192,465000.0,2021-03-18,12632 Longview Park LN,80831,3132.0,7970.0,38.988945,-104.592794,Palmer High School,3.0,Janitell Junior High School,3.0,,4.0,148.46743295019158,4
1619075,321423.0,2021-03-19,5309 Passport VW,80922,1812.0,2396.0,38.8338816,-104.8213634,Falcon High School,3.0,Mountain Ridge Middle School,2.0,Meridian Ranch Elementary School,,177.38576158940398,74
1736100,289000.0,2021-03-15,2505 Chimayo DR,80911,1208.0,7350.0,38.7630849,-104.7531194,Palmer High School,1.0,Cheyenne Mountain Junior High School,,,,239.23841059602648,11
7837596,12000.0,2021-01-05,37281 Highway 24 HW,80830,1104.0,8756.0,39.1714948,-103.9718907,Discovery High School,,North Middle School,,Webster Elementary School,,10.869565217391305,6
9227549,16000.0,2021-01-05,37131 Highway 24 HW,80830,1163.0,16030.0,39.1714478,-103.9724251,,,Falcon Middle School,,High Plains Elementary School,,13.757523645743767,6
7674186,120000.0,2021-01-07,1020 Ruppel ST,81001,1790.0,7150.0,38.2843445,-104.5926372,,1.0,North Middle School,0.0,Skyway Park Elementary School,2.0,67.0391061452514,56
1178437,147500.0,2021-01-04,411 Lakewood CR #C602,80910,864.0,1073.0,38.8227643,-104.7596669,East High School,3.0,Sproul Junior High School,3.0,Coperni 2,0.0,170.71759259259258,47
5588607,152000.0,2021-01-05,2021 W 16th ST,81003,1168.0,6000.0,38.8431123,-104.8465375,Atlas Preparatory High School,,,3.0,,1.0,130.13698630136986,56
9827448,157000.0,2021-01-04,3050 Starlight CR,80916,928.0,672.0,38.788592,-104.752874,Zebulon Pike,1.0,,1.0,Meridian Ranch Elementary School,2.0,169.18103448275863,62
3243865,160000.0,2021-01-04,935 Saturn DR #4,80905,810.0,214.0,38.80686,-104.8452339,,5.0,,5.0,Coperni 2,4.0,197.53086419753086,48
4057113,185000.0,2021-01-05,609 Bennett AV #E,80909,928.0,404.0,38.8415335,-104.7796472,Sierra High School,0.0,Risley International Academy Of Innovation,1.0,,1.0,199.35344827586206,63
1291112,192000.0,2021-01-08,2526 Plumtree GR,80907,912.0,541.0,38.8680978,-104.8388777,Cheyenne Mountain High School,3.0,Atlas Preparatory Middle School,3.0,Pinello Elementary School,4.0,210.52631578947367,18
9779131,195000.0,2021-01-04,2637 Hearthwood LN,80917,1000.0,1277.0,38.871427,-104.755292,Eastlake High School Of Colorado Springs,1.0,West Middle School,1.0,,2.0,195.0,55
7721637,195500.0,2021-01-08,91 Duke ST,81005,1608.0,7562.0,38.9298404,-104.8014223,Coronado High School,2.0,Panorama Middle School,4.0,,3.0,121.57960199004975,38
7471088,203800.0,2021-01-08,6520 Delmonico ST #201,80919,1406.0,423.0,38.9260224,-104.8296612,Mitchell High School,4.0,Cheyenne Mountain Junior High School,4.0,,4.0,144.95021337126602,38
4522627,208500.0,2021-01-08,23756 Clear Spring LN,80928,1512.0,12632.0,38.764627,-104.387575,Aspen Valley Campus,2.0,Galileo School Of Math And Science,2.0,Franklin School Of Innovation,2.0,137.8968253968254,0
5830125,215500.0,2021-01-08,247 Hillside DR,80816,1056.0,27007.2,38.9474978,-105.2827308,Civa Charter Academy,,Holmes Middle School,,Monroe Elementary School,,204.0719696969697,16
9234579,215900.0,2021-01-07,4234 Gray Fox HT,80922,1479.0,4000.0,38.8935718,-104.6865602,Ellicott Senior High School,2.0,Sabin Middle School,3.0,West Elementary School,,145.97701149425288,7
2870822,220000.0,2021-01-08,2762 Hearthwood LN,80917,901.0,901.0,38.873128,-104.7562891,,4.0,Eagleview Middle School,1.0,Turman Elementary School,2.0,244.173140954495,47
9960190,237000.0,2021-01-05,423 Ravenview CT,80919,1472.0,498.0,38.929612,-104.82005,Sand Creek High School,4.0,Eagleview Middle School,4.0,Skyway Park Elementary School,4.0,161.0054347826087,30
7159634,240000.0,2021-01-04,538 Observatory DR,80904,1078.0,1678.0,38.8417,-104.841963,Odyssey Early College And Career Options,3.0,Ellicott Middle School,3.0,Queen Palmer Elementary School,3.0,222.63450834879407,40
8094676,245000.0,2021-01-05,498 Granite LN,80813,1200.0,50529.6,38.8156225,-105.2038948,Civa Charter Academy,1.0,,,Academy For Advanced And Creative Learning,1.0,204.16666666666666,0
9343804,248900.0,2021-01-08,4621 Ports Down LN,80911,1501.0,966.0,38.7685521,-104.741083,Palmer High School,1.0,Skyview Middle School,,Penrose Elementary School,,165.8227848101266,36
6217245,249000.0,2021-01-04,2460 Hatch CR,80918,1260.0,773.0,38.932766,-104.781073,Cripple Creek-Victor Junior-Senior High School,4.0,Sabin Middle School,3.0,High Plains Elementary School,3.0,197.61904761904762,21
1629834,250000.0,2021-01-04,4210 Autumn Heights DR #C,80906,1184.0,1078.0,38.772282,-104.821088,Discovery High School,2.0,Eagleview Middle School,2.0,Rockrimmon Elementary School,3.0,211.14864864864865,42
8534088,251000.0,2021-01-06,2536 E Willamette AV,80909,1085.0,7508.0,38.841289,-104.780919,Rampart High School,0.0,West Middle School,1.0,Ellicott Elementary School,1.0,231.3364055299539,61
9528914,253500.0,2021-01-08,7427 Colonial LN,80817,1720.0,7659.0,38.7299623,-104.6908289,Harrison High School,2.0,,3.0,Lake George Charter School,3.0,147.38372093023256,5
1783955,253900.0,2021-01-08,4603 Ports Down LN,80911,1501.0,966.0,38.7685521,-104.741083,Eastlake High School Of Colorado Springs,1.0,Sproul Junior High School,,,,169.15389740173217,36
5001220,255000.0,2021-01-05,5074 Masheena LN,80917,1594.0,629.0,38.8832786,-104.7336286,Mesa Ridge High School,2.0,,1.0,Rocky Mountain Classical Academy,1.0,159.97490589711418,25
8313082,260000.0,2021-01-08,265 Independence RD,80813,768.0,47480.4,38.9427604,-104.7903635,Discovery High School,2.0,Jenkins Middle School,3.0,Penrose Elementary School,3.0,338.5416666666667,55
2871217,262000.0,2021-01-08,453 Rolling Hills DR,80919,1088.0,421.0,38.928151,-104.818287,Doherty High School,4.0,Fox Meadow Middle School,4.0,Rockrimmon Elementary School,4.0,240.80882352941177,25
6102958,264000.0,2021-01-05,1224 Houston AV,80905,894.0,9572.0,38.8040744,-104.8054614,Aspen Valley Campus,5.0,Galileo School Of Math And Science,5.0,Buena Vista Elementary School,2.0,295.3020134228188,34
4630583,265000.0,2021-01-05,3147 W Pikes Peak AV,80904,791.0,4456.0,38.8547877,-104.8735904,Civa Charter Academy,3.0,Janitell Junior High School,3.0,Cresson Elementary School,2.0,335.0189633375474,72
7648395,265000.0,2021-01-05,605 Cougar Bluff PT #202,80906,1104.0,1031.0,38.7685661,-104.8147657,The Vanguard School (High),2.0,Sproul Junior High School,2.0,Widefield District 3 Preschool,2.0,240.03623188405797,59
3862720,272000.0,2021-01-07,6950 Kipling ST,80911,2168.0,8800.0,38.7309247,-104.7064561,Coronado High School,2.0,,3.0,,4.0,125.46125461254613,9
5641156,282000.0,2021-01-08,1635 Little Bear Creek PT #7,80904,1132.0,451.0,38.8260556,-104.857127,Harrison High School,,Sabin Middle School,3.0,High Plains Elementary School,0.0,249.1166077738516,33
4608088,284000.0,2021-01-08,10108 W Dartmouth AV,80227,1684.0,741.0,38.7345788,-104.7226922,Mesa Ridge High School,2.0,Mountain Ridge Middle School,2.0,Oak Creek Elementary School,2.0,168.646080760095,41
3064407,285000.0,2021-01-04,6 OTOWI DR,80911,1188.0,6000.0,38.73812849999999,-104.7249101,Zebulon Pike,2.0,Eagleview Middle School,2.0,Queen Palmer Elementary School,2.0,239.8989898989899,53
8284355,293180.0,2021-01-05,4555 N Anjelina CR,80916,1257.0,6615.0,38.7999249,-104.7441411,,1.0,The Vanguard School (Middle),1.0,Sunrise Elementary School,1.0,233.23786793953857,47
2679529,300000.0,2021-01-07,2066 Palm DR,80918,1964.0,1086.0,38.8924568,-104.7877441,Mesa Ridge High School,3.0,Holmes Middle School,2.0,Widefield District 3 Preschool,3.0,152.74949083503054,6
1630276,300000.0,2021-01-04,511 Fountain Mesa RD,80817,1138.0,12971.0,38.6875103,-104.6942002,Widefield High School,1.0,Fox Meadow Middle School,2.0,,1.0,263.62038664323376,31
4998880,303000.0,2021-01-08,2665 Helton CT,80916,1340.0,8187.0,38.7928864,-104.7382166,Sierra High School,4.0,Janitell Junior High School,4.0,Carver Elementary School,4.0,226.11940298507463,23
5606952,305000.0,2021-01-06,2011 Wold AV,80909,1862.0,8820.0,38.8616828,-104.7528915,Launch High School,1.0,West Middle School,1.0,High Plains Elementary School,2.0,163.80236305048336,51
1399673,305000.0,2021-01-04,2165 Ambleside DR,80915,1064.0,11310.0,38.8642667,-104.7029023,Welte Education Center,2.0,Watson Junior High School,3.0,Rockrimmon Elementary School,2.0,286.65413533834584,42
9831107,305000.0,2021-01-06,424 Lost Lake DR,80814,1906.0,43995.6,38.9520079,-105.2264172,James Irwin Charter High School,,Watson Junior High School,,Stratton Meadows Elementary School,2.0,160.02098635886674,0
4912968,308351.0,2021-01-05,5356 Necker HT,80922,1812.0,2396.0,38.9108313,-104.6843288,Mitchell High School,3.0,Panorama Middle School,3.0,Mountain Song Community School,,170.17163355408388,5
3814741,308500.0,2021-01-05,11250 Florence ST #9A,80640,1639.0,120.0,39.9011336,-104.8707272,Power Technical Early College,2.0,Russell Middle School,1.0,Otero Elementary School,2.0,188.22452715070165,6
1846499,310000.0,2021-01-05,1015 N Murray BL,80915,1856.0,7700.0,38.847959,-104.7477415,,1.0,Fountain Middle School,1.0,Martin Luther King Junior Elementary School,0.0,167.02586206896552,48
3762537,310000.0,2021-01-08,6458 Ferndale DR,80923,1014.0,6050.0,38.9245195,-104.7022872,Vista Ridge High School,3.0,James Irwin Charter Middle School,3.0,Midland Elementary School,4.0,305.71992110453647,12
3140531,310000.0,2021-01-06,2710 W Bijou ST,80904,867.0,5549.0,38.851503,-104.863821,Prairie View High School,3.0,Sabin Middle School,3.0,Talbott Steam Innovation School,2.0,357.5547866205306,69
2157488,311000.0,2021-01-05,2706 N Chestnut ST,80907,1346.0,3080.0,38.8703727,-104.8363187,Mitchell High School,3.0,Horizon Middle School,3.0,Venetucci Elementary School,4.0,231.05497771173847,34
9485099,314000.0,2021-01-04,1495 Prado DR,80817,1642.0,6670.0,38.7309812,-104.7281911,Vista Ridge High School,2.0,,2.0,Bricker Elementary School,2.0,191.23020706455543,38
6489326,315000.0,2021-01-06,4851 Castledown RD,80917,2037.0,2322.0,38.8862791,-104.7357357,Coronado High School,2.0,Skyview Middle School,1.0,Grant Elementary School,1.0,154.63917525773195,40
3874367,315000.0,2021-01-06,4903 Palmer Park BL,80915,1375.0,13500.0,38.8540628,-104.7371001,Coronado High School,1.0,Prairie View Middle School,1.0,Aragon Elementary School,1.0,229.0909090909091,29
2201798,315000.0,2021-01-06,312 Cobblestone DR,80906,2206.0,825.0,38.7755829,-104.8191095,Mesa Ridge High School,2.0,Jack Swigert Aerospace Academy,2.0,Soaring Eagles Elementary School,3.0,142.792384406165,60
6441046,320000.0,2021-01-06,1003 Gilfin CR,80915,1583.0,15200.0,38.84715660000001,-104.7328392,Doherty High School,1.0,Skyview Middle School,1.0,Madison Elementary School,1.0,202.14782059380923,39
5502027,325000.0,2021-01-07,6855 Cedar Edge DR,80911,1230.0,7287.0,38.732506,-104.6844054,Mitchell High School,,West Middle School,3.0,Evans International Elementary School,,264.2276422764228,7
5952945,325000.0,2021-01-07,785 Hubbell DR,80911,2489.0,8193.0,38.7457106,-104.7274392,Harrison High School,,Holmes Middle School,2.0,Summit Elementary School,,130.5745279228606,15
1408309,325000.0,2021-01-04,2333 E Willamette ST,80909,1397.0,5250.0,38.8407273,-104.7861784,Mitchell High School,,Watson Junior High School,1.0,Rocky Mountain Classical Academy,,232.64137437365784,60
9504168,325000.0,2021-01-04,5345 Del Paz DR,80918,1600.0,8900.0,38.9081369,-104.7714878,,,Sabin Middle School,2.0,Belle Creek Charter School,,203.125,72
9675815,325000.0,2021-01-08,911 Raymond PL,80905,1786.0,6030.0,38.8466931,-104.8325339,,,Jack Swigert Aerospace Academy,2.0,Wilson Elementary School,,181.97088465845465,23
3851439,325000.0,2021-01-07,1326 Shasta DR,80910,1697.0,6800.0,38.8124842,-104.7711687,,,Fox Meadow Middle School,,Ridgeview Elementary School,,191.51443724219212,37
6982741,336900.0,2021-01-05,5506 Prairie Wheat VW,80917,2700.0,3861.0,38.878587,-104.7248943,,,Jack Swigert Aerospace Academy,1.0,Mountain Song Community School,,124.77777777777777,63
6291115,340000.0,2021-01-07,10625 Double D RD,80817,1682.0,22050.0,38.6773687,-104.6660018,,,Janitell Junior High School,2.0,Academy For Advanced And Creative Learning,,202.14030915576694,0
9545704,340000.0,2021-01-04,7812 Tango LN,80923,1558.0,3055.0,38.9131882,-104.6839953,,,Watson Junior High School,3.0,Talbott Steam Innovation School,,218.22849807445442,2
8340139,345000.0,2021-01-06,7911 Wagonwood PL,80908,1908.0,5248.98,38.9469197,-104.6855577,,3.0,Galileo School Of Math And Science,3.0,Carver Elementary School,,180.8176100628931,0
1286932,346500.0,2021-01-04,2319 Woodpark DR,80951,1431.0,5000.0,38.8660617,-104.6685982,,2.0,Russell Middle School,3.0,Henry Elementary School,,242.13836477987422,5
8557480,350000.0,2021-01-05,5327 Standard DR,80922,2232.0,5213.0,38.9091156,-104.687731,,2.0,North Middle School,3.0,Oak Creek Elementary School,,156.8100358422939,11
1218528,351500.0,2021-01-04,5722 Cassina DR,80923,1708.0,3486.0,38.9144983,-104.6846787,Vista Ridge High School,3.0,Carmel Middle School,3.0,Henry Elementary School,,205.79625292740047,2
2788652,352000.0,2021-01-05,1703 Alexander LN,80909,2146.0,7948.0,38.8570161,-104.78571,Power Technical Early College,1.0,,1.0,,,164.02609506057783,43
8216690,354000.0,2021-01-08,2005 E Flintlock TE,80920,2428.0,9017.0,38.9445397,-104.7888099,Sand Creek High School,2.0,Sabin Middle School,3.0,,,145.7990115321252,55
3903010,360000.0,2021-01-07,10904 Quincy Marr DR,80831,1602.0,11762.0,38.93494829999999,-104.6245483,Vista Ridge High School,0.0,Fountain Middle School,3.0,,,224.7191011235955,6
1465879,360000.0,2021-01-08,6012 John Muir TR,80927,1932.0,3190.0,38.927127,-104.659456,Achieve Online,3.0,Skyview Middle School,3.0,,,186.33540372670808,0
1223014,360000.0,2021-01-05,590 Crosstrail DR,80906,1782.0,12434.0,38.7807061,-104.8168593,Aspen Valley Campus,2.0,Skyview Middle School,2.0,,,202.02020202020202,57
5223679,360000.0,2021-01-05,3145 Cortina DR,80918,1753.0,7665.0,38.911533,-104.7692999,Patriot High School,2.0,Horizon Middle School,2.0,,,205.3622361665716,53
3818839,360000.0,2021-01-04,3939 Ranch Bluff CT,80922,2145.0,7327.0,38.8877338,-104.6932093,Vista Ridge High School,2.0,Skyview Middle School,3.0,,4.0,167.83216783216784,14
8887948,360500.0,2021-01-05,1321 Eagle View DR,80909,2540.0,6850.0,38.8520396,-104.786823,Harrison High School,1.0,Skyview Middle School,1.0,,4.0,141.9291338582677,43
8973748,361000.0,2021-01-07,719 W Kiowa ST,80905,1592.0,6519.0,38.8353262,-104.8382339,Doherty High School,3.0,Galileo School Of Math And Science,3.0,,3.0,226.75879396984925,63
4321291,362000.0,2021-01-05,1428 N Prospect ST,80907,756.0,9195.0,38.85458879999999,-104.8097813,Sand Creek High School,1.0,Mountain Ridge Middle School,2.0,,3.0,478.83597883597884,41
7023458,362500.0,2021-01-04,605 Red Feather LN,80863,2427.0,28314.0,39.0028302,-105.05859540000002,Achieve Online,3.0,Falcon Middle School,3.0,,3.0,149.36135146271116,29
3299194,362500.0,2021-01-08,10180 Seawolf DR,80925,2697.0,5600.0,38.7364623,-104.6386387,Palmer High School,2.0,Skyview Middle School,3.0,,,134.40860215053763,6
2373397,364500.0,2021-01-04,6375 Pushmataha DR,80915,2669.0,7335.5,38.8593502,-104.7091444,Community Prep Charter School,5.0,Fox Meadow Middle School,3.0,,2.0,136.5680029973773,31
1479485,370000.0,2021-01-05,11250 Florence ST #6D,80640,1853.0,100.0,39.9011336,-104.8707272,Woodland Park High School,2.0,Russell Middle School,1.0,,2.0,199.67620075553157,6
4936087,375000.0,2021-01-05,1324 N Corona ST,80903,1407.0,7500.0,38.8526668,-104.815764,Mesa Ridge High School,1.0,Horizon Middle School,2.0,,3.0,266.52452025586354,50
3050374,377000.0,2021-01-06,20560 Sahara DR,80831,1344.0,217800.0,38.942605,-104.448103,Pikes Peak Early College,,Galileo School Of Math And Science,,,,280.5059523809524,0
5802215,380000.0,2021-01-04,6209 San Mateo DR,80911,2864.0,6548.0,38.7602156,-104.7086253,Prairie View High School,2.0,West Middle School,2.0,,2.0,132.68156424581005,0
8236076,380000.0,2021-01-05,7842 Dry Willow WY,80908,3280.0,6037.0,38.9461535,-104.6870348,Community Prep Charter School,3.0,North Middle School,3.0,,2.0,115.85365853658537,0
5837111,382000.0,2021-01-07,4518 Moffat LN,80915,2281.0,7400.0,38.8480675,-104.742546,,1.0,Woodland Park Middle School,1.0,,0.0,167.47040771591406,42
4906550,385000.0,2021-01-05,2306 Lockhaven DR,80909,2869.0,9169.0,38.8650658,-104.7806045,Widefield High School,1.0,Janitell Junior High School,1.0,Springs Ranch Elementary School,2.0,134.19309864064135,28
4057889,385000.0,2021-01-04,9713 Fleece Flower WY,80831,3088.0,7219.0,38.9730365,-104.6056957,Vista Ridge High School,3.0,Horizon Middle School,3.0,James Irwin Charter Academy,3.0,124.6761658031088,10
2460679,387000.0,2021-01-04,739 S Lone Cowboy DR,81007,1965.0,54885.6,38.3159909,-104.805826,Mitchell High School,2.0,Prairie View Middle School,2.0,Buena Vista Elementary School,3.0,196.94656488549617,1
5093196,387000.0,2021-01-08,4716 Skywriter CR,80922,2319.0,8034.0,38.9010985,-104.7147488,Nikola Tesla Education Opportunity Center,2.0,North Middle School,3.0,Taylor Elementary School,2.0,166.88227684346703,36
3699963,388000.0,2021-01-08,7844 Black Walnut DR,80920,3077.0,5369.0,38.94482989999999,-104.7438221,Falcon High School,4.0,,3.0,Columbine Elementary School,3.0,126.09684757881053,24
1159891,390000.0,2021-01-06,6230 Poudre WY,80923,2221.0,6825.0,38.9214744,-104.7112403,Pueblo West High School,3.0,Watson Junior High School,3.0,Grand Mountain School,4.0,175.59657811796487,22
6909530,390000.0,2021-01-08,2516 Equine CT,80922,2636.0,5716.0,38.8697998,-104.6890618,Sand Creek High School,2.0,Skyview Middle School,3.0,,4.0,147.95144157814872,15
7667507,390000.0,2021-01-07,7357 Weatherwood DR,80927,2229.0,4725.0,38.93518900000001,-104.6581572,Liberty High School,3.0,Jack Swigert Aerospace Academy,3.0,Evans International Elementary School,,174.9663526244953,0
4295740,394000.0,2021-01-04,2060 Rimwood DR,80918,1756.0,9057.0,38.8911303,-104.7884908,Vista Ridge High School,3.0,Galileo School Of Math And Science,2.0,Belle Creek Charter School,3.0,224.373576309795,6
6246979,395000.0,2021-01-06,7930 Summit Ridge PL,80920,1961.0,5244.0,38.946912,-104.7871232,Power Technical Early College,2.0,Falcon Middle School,3.0,Taylor Elementary School,3.0,201.4278429372769,44
1152866,395000.0,2021-01-08,1006 North Star DR,80905,1529.0,7700.0,38.8106905,-104.8469896,Vista Ridge High School,5.0,Sky View Middle School,5.0,,4.0,258.3387835186396,38
4713684,400000.0,2021-01-05,4339 Apache Plume DR,80920,2608.0,5525.0,38.9628784,-104.746511,Launch High School,4.0,Skyview Middle School,4.0,French Elementary School,4.0,153.37423312883436,50
5789850,406000.0,2021-01-08,809 Regent CT,80817,2739.0,10245.0,38.7040611,-104.6926057,Aspen Valley Campus,1.0,Jenkins Middle School,3.0,Grand Peak Academy,2.0,148.22928075940123,11
4972547,407000.0,2021-01-08,6657 Lucky Star LN,80923,1854.0,3764.0,38.9278847,-104.688961,Cheyenne Mountain High School,3.0,Skyview Middle School,3.0,Wilson Elementary School,4.0,219.52535059331177,8
5560162,410000.0,2021-01-04,8535 Vanderwood RD,80908,2621.0,6311.0,38.9537468,-104.6988133,Liberty High School,3.0,Horizon Middle School,4.0,Audubon Elementary School,2.0,156.42884395268982,4
4705393,410000.0,2021-01-05,6623 Kari CT,80915,2727.0,8295.0,38.8671189,-104.7055904,Welte Education Center,2.0,Skyview Middle School,3.0,Bennett Ranch Elementary School,4.0,150.34836817015034,42
9336965,411000.0,2021-01-04,5627 Spoked Wheel DR,80923,2584.0,12632.4,38.9315976,-104.7269151,Vista Ridge High School,3.0,Mann Middle School,3.0,Cedar Ridge Elementary School,3.0,159.05572755417955,34
9379713,412000.0,2021-01-07,6840 Dauntless CT,80919,2198.0,11822.18,38.9304646,-104.8230038,Vista Ridge High School,4.0,Mountain Ridge Middle School,4.0,Odyssey Elementary School,4.0,187.44313011828936,31
1629321,412500.0,2021-01-05,4106 Pianta DR,80918,3155.0,11250.0,38.8911604,-104.779123,Power Technical Early College,3.0,Cheyenne Mountain Junior High School,2.0,Prairie Hills Elementary School,3.0,130.7448494453249,8
8116614,414990.0,2021-01-06,12785 Morning Breeze WY,80931,2840.0,6569.0,38.9702223,-104.584321,Vista Ridge High School,3.0,Timberview Middle School,3.0,Ridgeview Elementary School,4.0,146.1232394366197,1
4027149,417888.0,2021-01-08,3210 Greenway PL,80917,2650.0,8700.0,38.8778881,-104.7506811,Civa Charter Academy,2.0,Janitell Junior High School,1.0,Remington Elementary School,2.0,157.69358490566037,57
6031727,419000.0,2021-01-04,8035 Ferguson RD,80831,3012.0,6069.0,38.9491428,-104.5940941,Launch High School,0.0,Skyview Middle School,3.0,Inspiration View Elementary School,3.0,139.11022576361222,18
2054898,419900.0,2021-01-04,9337 Prairie Clover DR,80920,2241.0,7489.0,38.9652275,-104.7477871,Falcon High School,4.0,Timberview Middle School,4.0,,4.0,187.37170905845605,55
4632237,421060.0,2021-01-06,12755 Morning Breeze WY,80931,2482.0,7309.0,38.970114,-104.5852365,Doherty High School,3.0,Horizon Middle School,3.0,Grant Elementary School,4.0,169.64544721998388,1
9383681,423500.0,2021-01-08,4875 Braddock DR,80920,2663.0,7562.0,38.9487677,-104.7361659,Patriot High School,4.0,Jenkins Middle School,4.0,High Plains Elementary School,3.0,159.03116785580173,17
2600887,423638.0,2021-01-07,692 Sage Forest LN,80132,1457.0,4050.0,39.0683125,-104.8122293,Liberty High School,4.0,Eagleview Middle School,4.0,Skyway Park Elementary School,4.0,290.7604667124228,0
2940422,425000.0,2021-01-04,5582 Vermillion Bluffs DR,80923,3440.0,8570.0,38.9126052,-104.7147032,Falcon High School,3.0,Russell Middle School,3.0,Explorer Elementary School,2.0,123.54651162790698,55
2291236,425500.0,2021-01-06,35029 Ford RD,81006,3267.0,119790.0,39.0072913,-104.7474248,Liberty High School,5.0,Falcon Middle School,,Mesa Elementary School,5.0,130.2418120599939,0
2548781,430000.0,2021-01-07,7737 Sandsmere DR,80908,2994.0,5000.0,38.9470303,-104.6745377,Lewis-Palmer High School,3.0,Sabin Middle School,3.0,Ridgeview Elementary School,2.0,143.62057448229794,8
8077152,430000.0,2021-01-04,215 Rutgers PL,80863,2108.0,99752.4,38.9689542,-105.09134,Vista Ridge High School,3.0,Falcon Middle School,3.0,Grand Peak Academy,2.0,203.98481973434536,0
1049532,430000.0,2021-01-04,6170 Castlewood LN,80918,2431.0,11200.0,38.9209948,-104.7956025,Pine Creek High School,2.0,Timberview Middle School,2.0,Remington Elementary School,2.0,176.88194158782395,39
4731556,431000.0,2021-01-07,5912 O'Leary CT,80525,2025.0,6969.6,40.5028994,-105.0715646,Vista Ridge High School,5.0,Falcon Middle School,4.0,Freedom Elementary School,5.0,212.8395061728395,24
9312827,435000.0,2021-01-08,13106 Canyons Edge DR,80921,2340.0,4500.0,39.0226584,-104.8101004,Woodland Park High School,5.0,Timberview Middle School,4.0,Rockrimmon Elementary School,4.0,185.89743589743588,25
2749597,438000.0,2021-01-06,13205 Shoshone ST,80234,1708.0,4794.0,38.8571559,-104.6974057,Aspen Valley Campus,2.0,Discovery Canyon Campus Middle School,3.0,Grant Elementary School,2.0,256.44028103044496,30
5172209,440000.0,2021-01-06,103 Lake CR,80814,2324.0,44431.2,38.7918387,-104.8486781,Colorado Early College Fort Collins,5.0,Skyview Middle School,5.0,Meridian Ranch Elementary School,,189.32874354561102,35
3511957,441000.0,2021-01-04,6732 Knight DR,80918,2291.0,10450.0,38.9293655,-104.7997055,The Classical Academy High School,2.0,Chinook Trail Middle School,,Penrose Elementary School,3.0,192.4923614142296,47
5799071,445000.0,2021-01-04,7269 Thorn Brush WY,80923,2782.0,5000.0,38.9348334,-104.6935342,Power Technical Early College,3.0,,,Woodmen Hills Elementary School,4.0,159.9568655643422,4
7775379,450000.0,2021-01-05,1710 Vickers DR,80918,2487.0,11195.0,38.9169547,-104.7962863,Cheyenne Mountain High School,4.0,Skyview Middle School,,Explorer Elementary School,2.0,180.94089264173704,36
5095994,450000.0,2021-01-06,625 Slocum RD,80930,3097.0,207781.0,38.840886,-104.515553,Aspen Valley Campus,,Woodland Park Middle School,,Meridian Ranch Elementary School,,145.30190506942202,0
2949873,450000.0,2021-01-05,18320 Comanche TR,80817,2990.0,230868.0,38.56507300000001,-104.7128,Vista Ridge High School,,Russell Middle School,,Prairie Hills Elementary School,,150.50167224080266,0
6864936,454313.0,2021-01-04,6268 Ashmore LN,80927,3260.0,14637.0,38.9227633,-104.6543261,Civa Charter Academy,3.0,Webber Middle School,,Antelope Trails Elementary School,,139.35981595092025,0
8063090,459100.0,2021-01-04,10931 Tarbell DR,80925,3184.0,6082.0,38.7438097,-104.6263828,,2.0,The Classical Academy Middle School,,Odyssey Elementary School,,144.1896984924623,1
9151655,460000.0,2021-01-04,2635 Stoneridge DR,80919,2539.0,9471.0,38.9071203,-104.8747192,,4.0,Horizon Middle School,,Chinook Trail Elementary School,5.0,181.17369042930287,20
3802877,465000.0,2021-01-08,17003 Wellington DR,80134,3042.0,6534.0,39.5228512,-104.7930495,Vista Ridge High School,4.0,Cheyenne Mountain Junior High School,,Grand Peak Academy,4.0,152.85996055226823,26
7310328,470000.0,2021-01-05,1762 Willow Park WY,80132,3374.0,9176.0,39.1002755,-104.8595907,Mesa Ridge High School,5.0,,,Gateway Elementary School,4.0,139.30053349140485,27
8070921,473000.0,2021-01-06,12731 Morning Breeze WY,80831,3527.0,7309.37,38.970079,-104.5859908,Colorado Springs Early Colleges,3.0,,,King Elementary School,4.0,134.1083073433513,1
7630442,474000.0,2021-01-04,842 Redemption PT,80905,2603.0,4035.0,38.80699329999999,-104.842239,Chaparral High School,5.0,,,Werner Elementary School,4.0,182.09757971571264,54
8316013,475000.0,2021-01-05,10507 Wrangell DR,80924,2482.0,7065.0,38.9828574,-104.7371966,Palmer Ridge High School,5.0,,,The Classical Academy Charter,5.0,191.37792103142627,4
9133696,475000.0,2021-01-08,3710 Pony Tracks DR,80922,4067.0,10752.0,38.8852726,-104.7082786,Falcon High School,2.0,,,Evans International Elementary School,4.0,116.79370543398082,46
9042849,475000.0,2021-01-06,395 Oxbow DR,80132,3132.0,5929.0,39.06293170000001,-104.8338107,Cheyenne Mountain High School,4.0,,,Canon Elementary School,4.0,151.6602809706258,14
1286787,480000.0,2021-01-04,14686 Blue Wings WY,80921,3348.0,8646.0,39.0446581,-104.840512,Pine Creek High School,5.0,,,,4.0,143.36917562724014,4
3350344,485000.0,2021-01-08,817 Spectrum LP,80921,3333.0,5519.0,39.024914,-104.812404,Sand Creek High School,5.0,,,High Plains Elementary School,4.0,145.51455145514552,30
6082838,500000.0,2021-01-08,10255 Heritage Park TR,80831,2742.0,217800.0,38.9801793,-104.5212494,Lewis-Palmer High School,3.0,,,Ridgeview Elementary School,4.0,182.34865061998542,0
1154566,500000.0,2021-01-05,8125 Misty Moon DR,80924,3788.0,6000.0,38.950173,-104.70458,The Classical Academy High School,3.0,,,King Elementary School,2.0,131.99577613516368,2
8345006,506888.0,2021-01-06,5541 Silverstone TE,80919,3364.0,4804.0,38.91209620000001,-104.8648913,The Classical Academy High School,4.0,,,,5.0,150.68014268727705,22
8647948,515000.0,2021-01-05,7345 Sand Trap DR,80925,3168.0,27878.0,38.7256632,-104.6527015,Falcon High School,2.0,,,Prairie Heights Elementary School,3.0,162.56313131313132,0
9114159,536560.0,2021-01-05,6324 Knapp DR,80924,3094.0,9969.0,38.9742072,-104.7192018,Vista Ridge High School,4.0,,,,4.0,173.41952165481578,0
4175769,550000.0,2021-01-04,4670 Centauri RD,80919,4020.0,11529.0,38.9042969,-104.8664865,Colorado Springs Early Colleges,4.0,,,Inspiration View Elementary School,5.0,136.81592039800995,35
2120941,550000.0,2021-01-05,334 Winding Meadow WY,80132,3545.0,23000.0,39.0946378,-104.8343123,Mesa Ridge High School,4.0,,,,2.0,155.148095909732,12
5748004,550000.0,2021-01-06,284 Commanche RD,81252,2908.0,661240.8,38.8084851,-104.8368035,Liberty High School,5.0,,,Grand Mountain School,4.0,189.1334250343879,61
3420040,556000.0,2021-01-06,8056 Old Exchange DR,80920,4401.0,11458.0,38.9528471,-104.7633745,Colorado Springs Early Colleges,4.0,,,,4.0,126.33492388093615,34
9170316,558775.0,2021-01-06,3270 Red Cavern RD,80908,3748.0,7200.0,38.9914435,-104.7713206,Lewis-Palmer High School,5.0,,,Chipeta Elementary School,5.0,149.08617929562433,0
3228364,559000.0,2021-01-04,316 Gold Claim TE,80905,3843.0,12963.0,38.8288448,-104.850638,Cheyenne Mountain High School,,,,Cherokee Trail Elementary School,3.0,145.45927660681758,20
7300723,560000.0,2021-01-08,388 Valley Of The Sun DR,80440,1784.0,40075.0,39.247731,-106.09724,Rampart High School,,,,Lewis-Palmer Elementary School,,313.9013452914798,0
2161871,561000.0,2021-01-04,190 Ute RD,80816,3760.0,69260.4,38.9184176,-105.210545,Pine Creek High School,,,,Meridian Ranch Elementary School,2.0,149.20212765957447,0
4317530,565000.0,2021-01-08,1760 Smoke Ridge DR,80919,4271.0,10416.0,38.9279754,-104.8591664,Zebulon Pike,4.0,,,Skyway Park Elementary School,2.0,132.2875204870054,33
7212737,569250.0,2021-01-04,9220 Allana CT,80920,3837.0,12597.0,38.966259,-104.7791002,,4.0,,,Chinook Trail Elementary School,4.0,148.3580922595778,42
4734761,570000.0,2021-01-08,15795 Candle Creek DR,80132,4004.0,9375.0,39.0638702,-104.8314851,,4.0,,,Remington Elementary School,4.0,142.35764235764236,9
9105673,575000.0,2021-01-06,600 El Paso RD,80133,4548.0,23247.0,38.8602421,-104.8119691,,1.0,,,Bear Creek Elementary School,4.0,126.42919964819701,57
3950204,598900.0,2021-01-05,122 N 7th ST,80905,2598.0,3990.0,38.8365914,-104.8374131,Civa Charter Academy,3.0,,,Antelope Trails Elementary School,3.0,230.52347959969208,57
9468134,600000.0,2021-01-07,250 Lost Creek WY,80132,4106.0,17816.04,39.10363359999999,-104.8318499,Village High School,5.0,,,The Classical Academy Charter,4.0,146.12761811982466,0
2631674,615000.0,2021-01-08,1901 Parkview BL,80905,3238.0,16000.0,38.8132482,-104.8551758,Lewis-Palmer High School,5.0,,,Peyton Elementary School,5.0,189.93205682520073,8
9502834,620000.0,2021-01-05,1905 Mesa RD,80904,2921.0,22142.0,38.8594773,-104.8477463,Community Prep Charter School,3.0,,,Grand Peak Academy,4.0,212.25607668606642,14
3304328,624000.0,2021-01-05,540 Black Bear TR,80863,3306.0,17119.0,38.9865001,-105.05886940000002,Palmer High School,3.0,,,Chipeta Elementary School,2.0,188.74773139745918,24
1210365,637076.0,2021-01-08,1949 Canyonpoint LN,80108,3476.0,4225.0,39.0092474,-104.7983295,Palmer Ridge High School,5.0,,,Sunrise Elementary School,4.0,183.27848101265823,35
1062358,640452.0,2021-01-04,4958 Janga DR,80924,4389.0,10056.0,38.9803587,-104.7336497,Cheyenne Mountain High School,4.0,,,Ranch Creek Elementary,5.0,145.92207792207793,8
4725073,660000.0,2021-01-04,335 Cheshire CT,80906,4237.0,15455.09,38.763508,-104.8242692,Coronado High School,2.0,,,Chipeta Elementary School,5.0,155.77059240028322,13
4957869,670000.0,2021-01-08,15612 Colorado Central WY,80132,3960.0,10467.0,39.0577327,-104.8264464,Woodland Park High School,,,,Monument Charter Academy,4.0,169.1919191919192,12
8259113,680000.0,2021-01-05,6125 Templeton Gap RD,80923,3450.0,213880.0,38.918285,-104.721084,The Classical Academy High School,,,,Skyway Park Elementary School,3.0,197.1014492753623,21
5770989,685000.0,2021-01-08,7146 Bell DR,80920,2880.0,43560.0,38.9352797,-104.7878982,Liberty High School,,,,Academy Endeavour Elementary School,3.0,237.84722222222223,30
7031746,715000.0,2021-01-07,50 Ravenglass WY,80906,4679.0,13318.0,38.7493971,-104.8318271,Harrison High School,,,,Mountain View Elementary School,5.0,152.81042957896986,2
5813721,735000.0,2021-01-04,5750 Gladstone ST,80906,2993.0,11425.0,38.7459904,-104.8358191,,,,,Buena Vista Elementary School,5.0,245.57300367524223,0
6665602,760000.0,2021-01-04,16435 Fairchild AV,80132,3169.0,223027.0,39.070669,-104.876441,,,,,,4.0,239.82328810350268,5
6433538,795000.0,2021-01-04,3129 Soaring Eagle LN,80109,4303.0,18557.0,38.850535,-104.7037581,,,,,Summit Elementary School,2.0,184.75482221705786,32
3296586,807903.0,2021-01-05,907 Graywoods TE,80132,4004.0,14296.0,38.8338816,-104.8213634,,,,,Trailblazer Elementary School,,201.77397602397602,74
3553464,845000.0,2021-01-04,13025 Falcon HW,80831,2733.0,1701018.0,38.923717,-104.584922,,,,,Academy International Elementary School,3.0,309.1840468349799,0
8705838,890000.0,2021-01-07,1303 Old Cedar CV,80132,5292.0,44431.0,39.1192908,-104.8519861,,,,,Bear Creek Elementary School,4.0,168.17838246409676,0
1517183,950000.0,2021-01-08,510 Bewick PT,80906,5319.0,28590.0,38.780893,-104.855526,,,,,Steele Elementary School,,178.60500094002631,3
8079665,950000.0,2021-01-06,9958 Highway 78 HW,81023,3400.0,2520382.0,38.0180491,-105.0490402,,,,,Buena Vista Elementary School,,279.4117647058824,0
9327851,975000.0,2021-01-05,3015 Blodgett DR,80919,5287.0,22382.0,38.95258,-104.8824506,,,,,Lewis-Palmer Elementary School,,184.4146018536032,0
8299280,1098000.0,2021-01-07,19858 Kershaw CT,80132,6700.0,108900.0,39.1280845,-104.7909753,,,,,Gold Camp Elementary School,,163.88059701492537,0
5657833,1150000.0,2021-01-05,4430 Monitor Rock LN,80904,8393.0,32480.0,38.8825388,-104.9088357,,,,,Academy For Advanced And Creative Learning,,137.0189443583939,0
9557585,1300000.0,2021-01-05,200 Eagles Perch PL,80863,7957.0,25787.52,38.9880943,-105.0396231,,,,,Gateway Elementary School,,163.37815759708434,13
5140234,100000.0,2021-01-11,3405 Rebecca LN #C,80917,862.0,330.0,38.8794309,-104.764663,,,,,The Da Vinci Academy School,,116.0092807424594,47
2781049,105000.0,2021-01-08,3475 Rebecca LN #F,80917,862.0,393.0,38.87895400000001,-104.763257,,,,,Chinook Trail Elementary School,,121.80974477958236,28
2567253,115000.0,2021-01-08,645 J AV,80828,1680.0,6969.6,38.8808144,-104.8314979,,,,,Cheyenne Mountain Elementary School,,68.45238095238095,14
7782567,132000.0,2021-01-01,24975 Ben Kelly RD,80106,4071.0,262231.0,39.2302835,-104.6386424,,,,,Antelope Trails Elementary School,,32.424465733235074,0
4470146,181000.0,2021-01-07,1723 Lynwood LN,81005,960.0,6600.0,38.2369237,-104.6538857,,,,,Scott Elementary School,,188.54166666666666,42
2606087,200000.0,2021-01-11,4545 N Carefree CR,80917,995.0,591.0,38.88620299999999,-104.741575,,,,,High Plains Elementary School,,201.00502512562815,44
3478190,200000.0,2021-01-08,32 STOVEL CR,80916,985.0,1176.0,38.8331353,-104.7432509,,,,,Cheyenne Mountain Elementary School,,203.0456852791878,38
2695826,226000.0,2021-01-08,175 W Cheyenne RD #132,80906,832.0,302.0,38.8055658,-104.8304666,,,,,Cheyenne Mountain Elementary School,,271.63461538461536,63
4208373,229500.0,2021-01-07,5378 Palomino Ranch PT #203,80922,1063.0,0.0,38.90776,-104.7153838,,,,,Bear Creek Elementary School,,215.898400752587,57
2981823,240000.0,2021-01-11,1297 Vondelpark DR #C,80907,992.0,501.0,38.8883332,-104.8467198,,,,,McAuliffe Elementary,,241.93548387096774,46
2818702,240000.0,2021-01-08,269 W Spaulding AV,81007,1956.0,16988.4,38.3347784,-104.752299,,,,1.0,Coperni 2,,122.69938650306749,24
3919066,250000.0,2021-01-11,7004 Ash Creek HT #103,80922,979.0,508.0,38.8960315,-104.7002423,,,,3.0,,,255.3626149131767,13
6626354,258000.0,2021-01-07,4049 Valley DR,81008,2334.0,7590.0,38.31493830000001,-104.6374897,,,,2.0,Falcon Elementary School Of Technology,,110.53984575835476,34
3137260,265000.0,2021-01-08,2628 Green Ridge DR,80907,1728.0,7000.0,38.86987,-104.8346679,,,,3.0,Lewis-Palmer Elementary School,,153.3564814814815,28
7332885,275000.0,2021-01-11,104 Larch DR,80911,1440.0,6400.0,38.7613175,-104.7497468,,,,,,,190.97222222222223,24
1655309,275000.0,2021-01-06,7657 Sandy Springs PT,80817,1624.0,2106.0,38.713766,-104.688243,,,,3.0,,,169.33497536945814,28
5681007,277000.0,2021-01-11,600 Wheat Field RD,80817,1548.0,8274.0,38.6902956,-104.6902822,,,,2.0,,,178.9405684754522,16
5550422,279900.0,2021-01-07,40 MacAlester RD,81001,1920.0,10411.0,44.93427090000001,-93.1670354,,,,,,,145.78125,77
9989297,285000.0,2021-01-08,3025 Pinnacle DR,80910,1138.0,10766.0,38.7972095,-104.7707699,,,,,,,250.43936731107206,45
5719121,289000.0,2021-01-08,5036 Old Fountain BL,80916,1306.0,17900.0,38.8104397,-104.7342063,,,Liberty Point International School,1.0,,,221.2863705972435,21
9221688,292000.0,2021-01-11,4973 Pearl Kite VW,80916,1561.0,1013.0,38.786401,-104.736701,,4.0,Skyview Middle School,4.0,,,187.05957719410634,15
7970371,292500.0,2021-01-11,6232 Sierra Grande PT,80923,1396.0,1275.0,38.9254481,-104.7119107,,3.0,W H Heaton Middle School,3.0,,,209.52722063037248,40
9972905,295000.0,2021-01-11,1552 Chadwick DR,80906,931.0,6400.0,38.7625936,-104.769072,,1.0,Holmes Middle School,,,,316.8635875402793,1
8462280,295000.0,2021-01-11,6220 Cedar Park GR,80923,1348.0,950.0,38.920801,-104.740444,,2.0,Sproul Junior High School,3.0,,,218.84272997032642,20
8414137,297500.0,2021-01-08,4625 Wildcat CT,80916,1200.0,7064.0,38.8047529,-104.7386268,James Irwin Charter High School,1.0,,1.0,,,247.91666666666666,38
4047510,300000.0,2021-01-05,7311 Colonial CT,80817,1437.0,6996.0,38.7319637,-104.6911478,Vista Ridge High School,2.0,Janitell Junior High School,3.0,,,208.76826722338205,4
8984133,301000.0,2021-01-08,422 Aspen DR,80911,1169.0,11300.0,38.7494597,-104.7342519,Discovery High School,2.0,Fountain Middle School,2.0,,,257.4850299401198,34
1010772,305000.0,2021-01-11,516 Acoma DR,80911,1706.0,7793.0,38.7626521,-104.735619,Doherty High School,1.0,,,,,178.78077373974207,3
7221037,307500.0,2021-01-08,3385 Calaveras WY,80910,1666.0,8000.0,38.8051141,-104.7647418,Sierra High School,1.0,Carmel Middle School,,,,184.57382953181272,49
9401275,308000.0,2021-01-11,824 S Prospect ST,80903,1104.0,7260.0,38.821761,-104.8111491,Mesa Ridge High School,5.0,,5.0,,,278.9855072463768,29
8932952,310000.0,2021-01-08,3320 Simmelink LP,80916,1316.0,4848.0,38.7847952,-104.7526181,Widefield High School,1.0,Panorama Middle School,1.0,,,235.56231003039514,56
4293373,310000.0,2021-01-06,4315 Kanaly CT,80916,1526.0,6506.0,38.8058953,-104.7477871,Discovery High School,1.0,James Irwin Charter Middle School,1.0,,,203.14547837483616,38
7521537,310000.0,2021-01-11,5435 Standard DR,80922,2709.0,5508.0,38.9103935,-104.687731,Sierra High School,3.0,Skyview Middle School,3.0,,,114.43337024732374,8
3472653,312500.0,2021-01-11,2614 Gomer AV,80910,1395.0,9172.0,38.8296765,-104.7789178,The Vanguard School (High),0.0,Sproul Junior High School,1.0,,,224.01433691756273,46
5172460,312500.0,2021-01-11,7688 Sniktau PT,80831,1270.0,3195.0,38.943889,-104.605338,Sierra High School,0.0,,3.0,,,246.06299212598427,54
3399673,313000.0,2021-01-11,4515 La Cresta DR,80918,1696.0,7300.0,38.8968667,-104.7585431,Sierra High School,2.0,Jenkins Middle School,2.0,,,184.55188679245282,58
5407868,314900.0,2021-01-06,4635 Meadowland BL,80918,1695.0,5923.0,38.9021694,-104.7561275,Vista Ridge High School,2.0,Panorama Middle School,2.0,,,185.78171091445427,34
7337624,315000.0,2021-01-12,7118 Metropolitan ST,80911,1756.0,9200.0,38.7283276,-104.7064903,Eastlake High School Of Colorado Springs,2.0,Janitell Junior High School,3.0,,,179.38496583143507,12
9599965,315000.0,2021-01-08,3122 Hudson ST,80910,1492.0,7844.0,38.8305398,-104.7705876,Patriot High School,0.0,Watson Junior High School,1.0,,,211.12600536193028,44
8923540,318000.0,2021-01-12,6750 Mission RD,80915,1764.0,8400.0,38.8455687,-104.7065928,Doherty High School,5.0,Sproul Junior High School,3.0,,,180.2721088435374,42
4406961,320000.0,2021-01-08,8826 Bella Flora HT,80924,1363.0,1800.0,38.9598878,-104.727665,Doherty High School,4.0,,4.0,,,234.77622890682318,31
4652861,325000.0,2021-01-08,84 Shavano DR,80816,2293.0,95832.0,38.9653594,-105.2915562,Mesa Ridge High School,,Carmel Middle School,,,,141.735717400785,0
7192955,332000.0,2021-01-12,7445 Woodstock ST,80911,1208.0,6200.0,38.7274736,-104.6908745,Eastlake High School Of Colorado Springs,2.0,,3.0,,,274.8344370860927,11
7447503,335000.0,2021-01-08,3979 Half Turn PL,80917,2168.0,7370.0,38.8894539,-104.7525269,Pikes Peak Early College,2.0,The Vanguard School (Middle),1.0,,,154.52029520295204,69
3478097,335000.0,2021-01-08,79 Crystal Park RD #D,80829,1472.0,1094.0,38.856501,-104.8965163,Liberty High School,4.0,Panorama Middle School,2.0,,,227.58152173913044,43
3249750,343500.0,2021-01-12,7302 Sue LN,80925,1755.0,8338.0,38.7251272,-104.6788476,,2.0,Panorama Middle School,3.0,,,195.72649572649573,0
9319455,346000.0,2021-01-11,10678 Hidden Prairie PW,80817,1633.0,5060.0,38.6778335,-104.695116,Mesa Ridge High School,3.0,Skyview Middle School,2.0,,,211.87997550520515,4
7271345,350000.0,2021-01-11,7205 Campstool DR,80922,1160.0,7700.0,38.8912056,-104.6934713,Doherty High School,2.0,Jack Swigert Aerospace Academy,3.0,,,301.7241379310345,15
7631859,350000.0,2021-01-11,1851 Silver Meadow CR,80951,1589.0,5200.0,38.8614244,-104.6774689,Manitou Springs High School,2.0,Falcon Middle School,3.0,,,220.26431718061673,21
7501035,350000.0,2021-01-08,1830 Wildwood Pass DR,80921,1547.0,3515.0,38.99864729999999,-104.7954201,Mesa Ridge High School,5.0,Russell Middle School,4.0,,,226.2443438914027,16
6106832,350000.0,2021-01-05,2115 Greenwich CR,80909,2200.0,8555.0,38.8644037,-104.7500658,Fountain-Fort Carson High School,1.0,Russell Middle School,1.0,,,159.0909090909091,39
7862267,350000.0,2021-01-11,5740 Bourke DR,80919,1424.0,5908.0,38.9140808,-104.8593716,Sand Creek High School,4.0,Janitell Junior High School,4.0,,,245.7865168539326,17
2987665,355000.0,2021-01-07,54 Delaware RD,80829,780.0,3267.0,38.8345873,-104.7623268,Power Technical Early College,1.0,Jack Swigert Aerospace Academy,1.0,,0.0,455.12820512820514,52
7272777,355000.0,2021-01-08,3964 Reindeer CR,80922,1671.0,3933.0,38.8839742,-104.6897355,Tca College Pathways,2.0,Horizon Middle School,3.0,,4.0,212.44763614602036,6
5695716,355000.0,2021-01-11,4310 Stonesthrow VW,80922,2979.0,4194.83,38.888815,-104.702337,Mitchell High School,2.0,Timberview Middle School,3.0,,4.0,119.16750587445452,27
9337641,360000.0,2021-01-11,7357 Maybeck VW,80831,2456.0,4981.0,38.9385398,-104.6052492,Colorado Springs Early Colleges,0.0,,3.0,,3.0,146.57980456026058,55
7275620,362000.0,2021-01-08,7932 Maiden CT,80831,1848.0,6028.0,38.9489534,-104.6168177,Mitchell High School,0.0,Janitell Junior High School,3.0,,3.0,195.8874458874459,8
9802677,365000.0,2021-01-08,7871 Springwood TE,80908,1908.0,5061.67,38.9481267,-104.6988929,Sand Creek High School,3.0,Sabin Middle School,3.0,,2.0,191.29979035639414,5
2732426,365000.0,2021-01-08,1043 Lindamood DR,80817,2425.0,6288.0,38.7076668,-104.68876740000002,Sand Creek High School,1.0,Manitou Springs Middle School,3.0,,2.0,150.51546391752578,4
3987045,373000.0,2021-01-12,9958 Silver Stirrup DR,80925,2450.0,3825.0,38.7443303,-104.642964,Patriot High School,2.0,Janitell Junior High School,3.0,,,152.24489795918367,1
6401830,374000.0,2021-01-11,7334 Edgebrook DR,80922,1960.0,5488.56,38.8959403,-104.692059,Patriot High School,2.0,Fountain Middle School,3.0,,,190.81632653061226,15
9431917,380000.0,2021-01-06,6536 Gelbvieh RD,80831,2382.0,5136.0,38.9278369,-104.606302,Vista Ridge High School,0.0,Horizon Middle School,3.0,,3.0,159.5298068849706,22
5123606,380000.0,2021-01-05,9685 Country Vistas WY,80831,2450.0,6169.0,38.9725117,-104.5787602,Welte Education Center,3.0,Horizon Middle School,3.0,,4.0,155.10204081632654,2
7155099,395000.0,2021-01-08,7544 Lake AV,80817,2984.0,10916.0,38.7968694,-104.8236084,Mesa Ridge High School,5.0,The Classical Academy Middle School,5.0,,4.0,132.37265415549598,39
9208074,415000.0,2021-01-08,10224 Hidden Park WY,80831,3386.0,7030.0,38.97987910000001,-104.5800468,Sand Creek High School,3.0,Sabin Middle School,3.0,,4.0,122.563496751329,2
1598739,420000.0,2021-01-11,9303 Copenhagen RD,80831,3086.0,7750.0,38.96732739999999,-104.5914079,Patriot High School,3.0,Eagleview Middle School,3.0,,4.0,136.09850939727804,0
1605188,425000.0,2021-01-12,6934 Urlingford PL,80923,3373.0,5500.0,38.9326187,-104.7110094,Falcon High School,3.0,Jack Swigert Aerospace Academy,3.0,,4.0,126.0005929439668,14
2930152,440000.0,2021-01-12,5103 Constitution AV,80915,3086.0,43560.0,38.8675459,-104.733705,The Vanguard School (High),5.0,Horizon Middle School,1.0,,2.0,142.57939079714842,27
3899011,445000.0,2021-01-11,5425 Barnstormers AV,80911,3158.0,7669.0,38.780798,-104.732891,Falcon High School,4.0,Horizon Middle School,4.0,,4.0,140.9119696010133,12
3798061,445000.0,2021-01-08,2755 S Meridian RD,80929,1540.0,1525907.0,38.7909409,-104.603606,Falcon High School,,Falcon Middle School,,,,288.961038961039,0
5967670,461682.0,2021-01-08,3376 Emily ST,80109,1883.0,3572.0,39.3975859,-104.8936088,Vista Ridge High School,4.0,Falcon Middle School,2.0,,3.0,245.18428040361127,10
2826570,479000.0,2021-01-08,6747 Indian Feather DR,80923,3246.0,8184.0,38.9305563,-104.6861821,Pikes Peak Early College,3.0,Skyview Middle School,3.0,,4.0,147.56623536660504,7
5181565,485000.0,2021-01-11,1354 Ridgestone DR,80863,2000.0,16988.4,38.8338816,-104.8213634,James Irwin Charter High School,3.0,Janitell Junior High School,2.0,Monroe Elementary School,,242.5,74
9179620,495000.0,2021-01-08,7295 Cedar Brush CT,80908,3866.0,11579.0,38.9547241,-104.6892637,,3.0,Janitell Junior High School,3.0,Remington Elementary School,2.0,128.039317123642,7
6333588,496000.0,2021-01-11,16251 Windy Creek DR,80132,3272.0,8400.0,39.0659551,-104.840286,Castle View High School,4.0,Skyview Middle School,4.0,Springs Ranch Elementary School,4.0,151.58924205378972,8
6845434,510000.0,2021-01-07,10615 Double D RD,80817,2297.0,23200.0,38.67736379999999,-104.665569,Vista Ridge High School,3.0,Falcon Middle School,2.0,Falcon Elementary School Of Technology,2.0,222.0287331301698,0
6861965,512000.0,2021-01-08,7856 Callendale DR,80908,3416.0,9532.0,38.9482429,-104.676933,Palmer High School,3.0,Falcon Middle School,3.0,Woodmen Hills Elementary School,2.0,149.88290398126463,5
2976122,530000.0,2021-01-11,5741 Tombstone TR,80923,3418.0,7908.0,38.916509,-104.6954759,Vista Ridge High School,3.0,The Vanguard School (Middle),3.0,Grand Peak Academy,4.0,155.061439438268,5
4059789,532924.0,2021-01-07,10227 Kentwood DR,80924,3778.0,7158.0,38.97576979999999,-104.7212074,Lewis-Palmer High School,4.0,Falcon Middle School,,Mesa Elementary School,5.0,141.0598200105876,0
2918113,540000.0,2021-01-11,9201 Kathi Creek DR,80924,3895.0,6877.0,38.9652567,-104.7149607,Fountain-Fort Carson High School,4.0,Falcon Middle School,,Grand Mountain School,4.0,138.6392811296534,3
7103623,545000.0,2021-01-08,930 N Grey Eagle CR,80919,2596.0,14570.0,38.928132,-104.8450287,Vista Ridge High School,4.0,Skyview Middle School,4.0,,4.0,209.93836671802774,35
7769741,545000.0,2021-01-11,10847 Hidden Brook CR,80908,3178.0,6000.0,38.990722,-104.761574,Vista Ridge High School,5.0,Sabin Middle School,5.0,Rocky Mountain Classical Academy,5.0,171.49150409062304,2
8027672,550000.0,2021-01-12,927 Oakwood DR,80104,3475.0,9017.0,38.9206154,-104.7243776,Liberty High School,3.0,James Irwin Charter Middle School,3.0,Falcon Elementary School Of Technology,3.0,158.27338129496403,26
6013303,574103.0,2021-01-08,10370 Sharon Springs DR,80924,3782.0,12884.0,38.9765095,-104.7209386,Liberty High School,4.0,,,Meridian Ranch Elementary School,5.0,151.79878371232152,0
8642673,575000.0,2021-01-06,6466 Barrel Race DR,80923,5511.0,15622.0,38.9228799,-104.7447336,Civa Charter Academy,2.0,Castle Rock Middle School,3.0,The Vanguard School (Elementary),3.0,104.33678098348757,18
6211780,585000.0,2021-01-11,7080 Mustang Rim DR,80923,4315.0,6012.0,38.9288006,-104.6849101,Pine Creek High School,3.0,Skyview Middle School,3.0,Meridian Ranch Elementary School,4.0,135.57358053302434,8
9035376,593000.0,2021-01-11,2185 Deer Mountain RD,80829,3244.0,30492.0,38.8384854,-104.9452123,Vista Ridge High School,4.0,North Middle School,2.0,Meridian Ranch Elementary School,2.0,182.79901356350186,0
9668970,606257.0,2021-01-08,10417 Kelowna VW,80908,3613.0,5838.0,38.9834577,-104.7759978,Liberty High School,5.0,Skyview Middle School,5.0,Ridgeview Elementary School,5.0,167.79878217547744,4
4457392,675000.0,2021-01-08,17505 Arrowwood DR,80132,3213.0,100624.0,39.0853476,-104.8186038,Doherty High School,4.0,Lewis-Palmer Middle School,4.0,Madison Elementary School,2.0,210.08403361344537,0
7152223,699000.0,2021-01-11,16755 Oak Brush LP,80831,3779.0,230432.0,39.092797,-104.514299,Vista Ridge High School,3.0,Fountain Middle School,,Soaring Eagles Elementary School,4.0,184.96956866896005,0
5511087,735500.0,2021-01-11,1475 Blueberry Hills RD,80132,4521.0,36800.0,39.1152198,-104.8541952,Manitou Springs High School,5.0,Skyview Middle School,4.0,Grand Mountain School,4.0,162.68524662685246,2
2266218,857000.0,2021-01-11,16357 Shadow Cat PL,80132,4564.0,17302.0,39.0672119,-104.8027111,Pine Creek High School,4.0,Skyview Middle School,4.0,,4.0,187.77388255915864,6
9773605,870000.0,2021-01-08,5705 Gladstone ST,80906,4846.0,18861.0,38.7463433,-104.8350191,Lewis-Palmer High School,2.0,Chinook Trail Middle School,,Aspen View Academy,5.0,179.52950887329757,1
9399811,962000.0,2021-01-11,8312 Airpark HT,80831,3600.0,108900.0,38.8338816,-104.8213634,Peyton Senior High School,3.0,,2.0,Ridgeview Elementary School,,267.22222222222223,74
8773990,1291000.0,2021-01-08,320 Ellsworth ST,80906,8193.0,50094.0,38.7485902,-104.8393056,Palmer Ridge High School,5.0,Chinook Trail Middle School,,Coperni 2,5.0,157.57353838642743,1
8912447,625529.0,2021-01-08,1225 Lady Campbell DR,80905,3492.0,5873.0,38.8292712,-104.8508704,Discovery Canyon Campus High School,,,3.0,,3.0,179.13201603665522,30
2499292,123000.0,2021-01-14,413 Spicer AV,80860,1318.0,3049.2,38.7080077,-105.14246609999998,Harrison High School,1.0,Eagleview Middle School,,Grand Peak Academy,1.0,93.32321699544765,15
5946494,128000.0,2021-01-14,3460 Parkmoor Village DR #E,80917,862.0,393.0,38.87829869999999,-104.7629824,Palmer High School,1.0,Challenger Middle School,1.0,Bear Creek Elementary School,2.0,148.49187935034803,28
9761553,198000.0,2021-01-08,429 S Oak Creek DR,81007,987.0,12400.0,38.7832539,-104.818432,Cheyenne Mountain High School,2.0,Skyview Middle School,2.0,Jordahl Elementary School,3.0,200.6079027355623,43
1759137,205000.0,2021-01-15,3135 Starlight CR,80916,928.0,672.0,38.7882869,-104.751234,Zebulon Pike,1.0,Chinook Trail Middle School,1.0,Grand Peak Academy,2.0,220.9051724137931,59
5879399,212000.0,2021-01-15,2720 Hearthwood LN,80917,1004.0,479.0,38.872264,-104.756367,,4.0,,1.0,Ridgeview Elementary School,2.0,211.15537848605578,47
6521719,216000.0,2021-01-13,6627 Pahokee CT,80915,992.0,1263.0,38.8581194,-104.7043438,Cripple Creek-Victor Junior-Senior High School,2.0,Jenkins Middle School,3.0,Chinook Trail Elementary School,2.0,217.74193548387098,42
4356046,230000.0,2021-01-13,1821 Lark Bunting LN,81001,962.0,11543.0,39.058153,-104.6890712,Nikola Tesla Education Opportunity Center,,Skyview Middle School,,Ranch Creek Elementary,3.0,239.0852390852391,0
6421880,251000.0,2021-01-13,2101 Elmwood LN,81005,1949.0,7922.0,38.8964303,-104.8136868,Harrison High School,4.0,Manitou Springs Middle School,2.0,Foothills Elementary School,2.0,128.78399179066187,34
8185433,260000.0,2021-01-14,3459 Grey Owl PT,80916,1216.0,1432.0,38.783119,-104.73716,Sierra High School,4.0,Challenger Middle School,4.0,Mountain View Elementary School,4.0,213.81578947368422,16
5639040,273000.0,2021-01-13,1635 Little Bear Creek PT #10,80904,1159.0,497.0,38.826025,-104.8569671,Odyssey Early College And Career Options,,Lewis-Palmer Middle School,3.0,Scott Elementary School,0.0,235.5478861087144,33
8614238,290000.0,2021-01-14,1658 Deer Creek RD,80132,1730.0,802.0,39.10432,-104.857179,Power Technical Early College,5.0,Peyton Junior High School,4.0,Chinook Trail Elementary School,4.0,167.63005780346822,15
1734178,293884.0,2021-01-13,6410 Crossdrum PT,80927,1477.0,2155.0,38.9261282,-104.6545152,,3.0,,3.0,Martinez Elementary School,,198.9735951252539,0
2844946,294000.0,2021-01-13,4363 McGrew CR,80911,1396.0,6083.0,38.7685571,-104.7521718,Civa Charter Academy,1.0,Lewis-Palmer Middle School,,Ridgeview Elementary School,,210.60171919770772,12
3796656,296000.0,2021-01-14,6625 Brook Park DR,80918,1926.0,7000.0,38.9279589,-104.7893018,James Irwin Charter High School,2.0,Discovery Canyon Campus Middle School,2.0,Manitou Springs Elementary School,2.0,153.68639667705088,45
7456544,296000.0,2021-01-13,760 Calle Entrada,80817,1589.0,7700.0,38.6995349,-104.6934634,Zebulon Pike,1.0,Carson Middle School,,Mountain View Elementary School,2.0,186.28067967275015,23
8015075,300890.0,2021-01-15,5380 Necker HT,80922,1812.0,2396.0,38.9108313,-104.6843288,,3.0,,,Monument Charter Academy,,166.0540838852097,5
2226313,305000.0,2021-01-14,102 frost LN,80916,2100.0,8900.0,38.8306323,-104.7394926,Palmer Ridge High School,1.0,North Middle School,,Peyton Elementary School,3.0,145.23809523809524,22
5858432,305000.0,2021-01-14,4942 Old Fountain BL,80916,1444.0,10300.0,38.8102505,-104.7363026,Vista Ridge High School,3.0,Carson Middle School,,Lewis-Palmer Elementary School,3.0,211.21883656509695,15
2050992,305000.0,2021-01-08,5572 Green River DR,80923,1152.0,6204.0,38.9117759,-104.7099645,Discovery High School,3.0,,,Antelope Trails Elementary School,2.0,264.75694444444446,49
3923750,305000.0,2021-01-14,2187 Windmill DR,80449,2340.0,130680.0,38.8856044,-104.8489905,Aspen Valley Campus,4.0,West Middle School,,Cheyenne Mountain Elementary School,2.0,130.34188034188034,28
6353338,307525.0,2021-01-15,110 LAWRENCE AV,80909,1248.0,10000.0,38.8344958,-104.7837042,Welte Education Center,0.0,,,Coperni 2,0.0,246.41426282051282,59
3102655,312500.0,2021-01-15,7205 Fortman TE,80817,2158.0,12632.4,38.7280083,-104.6945192,Vista Ridge High School,2.0,Sabin Middle School,,,3.0,144.8100092678406,11
7116980,314500.0,2021-01-13,4174 Sod House TR,80917,1560.0,6300.0,38.8918557,-104.7341608,Mitchell High School,2.0,Fox Meadow Middle School,,Cheyenne Mountain Elementary School,4.0,201.60256410256412,33
4797674,315000.0,2021-01-15,3805 Manchester ST,80907,2181.0,10000.0,38.8865962,-104.7997967,Atlas Preparatory High School,3.0,Panorama Middle School,,Buena Vista Elementary School,3.0,144.42916093535075,23
7359839,315000.0,2021-01-13,3212 N Arcadia ST,80907,950.0,6000.0,38.87971539999999,-104.8097703,Vista Ridge High School,3.0,Sabin Middle School,,Cresson Elementary School,3.0,331.57894736842104,65
5648345,315000.0,2021-01-13,8228 W Highway 24 HW,80809,1116.0,12327.0,38.9067642,-104.6313686,Colorado Springs Early Colleges,0.0,Horizon Middle School,,Colorado Springs Charter Academy,3.0,282.258064516129,0
8844986,315000.0,2021-01-12,221 Davie DR,80911,1330.0,7603.0,38.7600173,-104.7430473,Eastlake High School Of Colorado Springs,1.0,,,Oak Creek Elementary School,,236.8421052631579,34
2405805,315000.0,2021-01-13,782 Westwood TC,80863,1916.0,2526.0,38.8971028,-104.7686906,Mesa Ridge High School,2.0,Mann Middle School,,Turman Elementary School,3.0,164.40501043841337,54
7136361,315000.0,2021-01-15,3814 Half Turn RD,80917,1818.0,11400.0,38.8865832,-104.75435,Doherty High School,2.0,James Irwin Charter Middle School,,Penrose Elementary School,1.0,173.26732673267327,68
9646171,316000.0,2021-01-13,3034 N Moonbeam CR,80916,1331.0,8296.0,38.787964,-104.747622,Launch High School,1.0,West Middle School,,Evans International Elementary School,2.0,237.41547708489858,49
7409957,317000.0,2021-01-15,4751 Iron Horse Villas PT,80917,1316.0,693.0,38.8947816,-104.7377715,Launch High School,2.0,Lewis-Palmer Middle School,,Edith Wolford Elementary School,1.0,240.88145896656536,51
7813903,324900.0,2021-01-15,5660 Shamrock HT,80923,1692.0,1360.0,38.9284477,-104.7250979,Patriot High School,3.0,Skyview Middle School,,Colorado International Language Academy,3.0,192.0212765957447,36
2391389,332500.0,2021-01-12,4375 Allesandro DR,80916,2134.0,6090.0,38.8189337,-104.7452805,Discovery High School,3.0,Sproul Junior High School,,Soaring Eagles Elementary School,3.0,155.81068416119962,41
6802269,335000.0,2021-01-15,2120 Summerset DR,80920,2304.0,1650.0,38.9515356,-104.7884668,Doherty High School,2.0,,,Midland Elementary School,,145.39930555555554,45
5160845,339400.0,2021-01-12,14362 Woodrock PA,80921,1200.0,4050.0,39.026284,-104.8165748,Doherty High School,5.0,Russell Middle School,,Lewis-Palmer Elementary School,4.0,282.8333333333333,40
4270997,340000.0,2021-01-08,3220 Rock Harbor PT,80922,2476.0,4828.0,38.87730699999999,-104.6999864,Sierra High School,2.0,,,Inspiration View Elementary School,4.0,137.31825525040387,25
7783382,340000.0,2021-01-14,7460 Silver Bow DR,80925,2100.0,7376.0,38.7229789,-104.6749755,Doherty High School,2.0,,,,3.0,161.9047619047619,0
8056590,340000.0,2021-01-15,173 S Golfwood DR,81007,2362.0,14810.4,38.3304253,-104.7620629,Vista Ridge High School,4.0,,,Pinello Elementary School,2.0,143.94580863674852,3
2193134,343000.0,2021-01-12,2850 E Serendipity CR,80917,1882.0,9100.0,38.8733911,-104.7539626,Atlas Preparatory High School,2.0,,,,2.0,182.2529224229543,51
7382315,345500.0,2021-01-15,4426 Misty DR,80918,2168.0,9000.0,38.8984799,-104.7698925,Aspen Valley Campus,2.0,,,King Elementary School,3.0,159.36346863468634,57
6238693,350000.0,2021-01-15,5516 Country Heights DR,80917,1535.0,7000.0,38.9044525,-104.7256392,The Classical Academy High School,2.0,,,Mesa Elementary School,2.0,228.01302931596092,12
4053597,350700.0,2021-01-15,743 E Cimarron ST,80903,1522.0,9500.0,38.826051,-104.811328,Sand Creek High School,3.0,,,Rocky Mountain Classical Academy,,230.42049934296978,41
3996977,355000.0,2021-01-15,2390 Woodpark DR,80951,2590.0,6534.0,38.8669467,-104.6685526,Mesa Ridge High School,2.0,,,Sand Creek International Elementary School,2.0,137.06563706563708,5
2963621,355000.0,2021-01-13,5 Ute TR,80829,1651.0,4925.0,38.8715137,-104.8762571,Swallows Charter Academy High School,3.0,,,Wildflower Elementary School,3.0,215.02119927316778,1
3113451,357000.0,2021-01-15,8207 Monterey WY,80817,2059.0,13153.0,38.7130876,-104.7012621,Doherty High School,2.0,,,Odyssey Elementary School,2.0,173.38513841670715,55
9740027,360000.0,2021-01-15,11653 Avena RD,80831,1686.0,7173.0,38.9491134,-104.6123216,Doherty High School,0.0,,,Jackson Elementary School,3.0,213.52313167259786,12
5222168,360000.0,2021-01-11,2357 Spring Blossom DR,80910,2110.0,6250.0,38.7980645,-104.7763196,Doherty High School,2.0,,,Rogers Elementary School,1.0,170.61611374407582,15
5320849,365000.0,2021-01-07,1045 Lindstrom DR,80911,2218.0,6207.0,38.7490605,-104.7237937,Palmer High School,2.0,,,Sunrise Elementary School,2.0,164.56266907123535,16
3041462,365000.0,2021-01-12,6550 Alberta DR,80918,1795.0,9177.0,38.9269831,-104.7779606,Power Technical Early College,4.0,,,Rudy Elementary School,2.0,203.3426183844011,38
1820271,365000.0,2021-01-14,364 Little Horn DR,81252,3968.0,466528.0,38.212056,-105.2979138,Coronado High School,,,,Edison Elementary School,,91.98588709677419,0
7795893,368000.0,2021-01-04,10990 Quercia CR,80817,2028.0,3827.0,38.672692,-104.6904827,Mesa Ridge High School,3.0,,,Edison Elementary School,2.0,181.4595660749507,2
5651663,368000.0,2021-01-14,5990 Pemberton WY,80919,1372.0,4950.0,38.917357,-104.861123,Patriot High School,4.0,,,Falcon Elementary School Of Technology,2.0,268.22157434402334,14
9673826,368000.0,2021-01-15,10779 Traders PW,80817,1633.0,5000.0,38.6752989,-104.6907126,Harrison High School,3.0,,,Widefield District 3 Preschool,2.0,225.35211267605635,3
7011542,369000.0,2021-01-15,2923 N Institute ST,80907,2120.0,7280.0,38.8731229,-104.8074789,Widefield High School,3.0,,,,3.0,174.0566037735849,81
2718469,371367.0,2021-01-12,11119 Galaxy Hunter DR,80908,2598.0,5750.0,38.9932209,-104.7682941,Rampart High School,5.0,,,Grant Elementary School,5.0,142.9434180138568,0
6573539,372000.0,2021-01-15,1510 Terra Vista LN,80911,2772.0,13200.0,38.7367473,-104.7066384,,2.0,,,Carver Elementary School,4.0,134.1991341991342,9
4964592,372500.0,2021-01-14,3905 Bunk House DR,80917,2070.0,10100.0,38.8882945,-104.7343658,Fountain-Fort Carson High School,2.0,,,Turman Elementary School,,179.95169082125605,39
1263739,381790.0,2021-01-12,12882 Morning Breeze WY,80831,3294.0,7596.0,38.9713086,-104.5816688,Colorado Springs Early Colleges,3.0,,,Carver Elementary School,,115.90467516697025,0
9374571,384148.0,2021-01-04,1854 Peak Prairie LN,80132,1694.0,4365.0,39.06994890000001,-104.8623157,Fountain-Fort Carson High School,4.0,,,Freedom Elementary School,,226.76977567886658,13
9808714,385000.0,2021-01-15,10871 Yuba DR,80925,2115.0,6600.0,38.7357606,-104.6258301,Launch High School,2.0,,,Wildflower Elementary School,,182.03309692671394,3
9272472,385000.0,2021-01-15,8350 Dolly Madison DR,80920,2178.0,8772.0,38.9527696,-104.7345253,Pine Creek High School,4.0,,,Briargate Preschool,,176.76767676767676,41
5158572,385000.0,2021-01-14,8810 Christy CT,80951,2886.0,6066.0,38.8643139,-104.6666395,Mesa Ridge High School,2.0,,,,,133.4026334026334,5
3175315,387000.0,2021-01-14,6565 Turkey Tracks RD,80922,2398.0,8870.0,38.8754523,-104.7057271,Doherty High School,5.0,,,The Classical Academy Charter,,161.38448707256046,25
8193822,387000.0,2021-01-15,275 S Spaulding AV,81007,4350.0,14984.64,38.3277005,-104.7674539,Falcon High School,2.0,,,Remington Elementary School,,88.96551724137932,2
3948375,389900.0,2021-01-12,937 Magnolia ST,80907,2299.0,7125.0,38.8883286,-104.8101916,Lewis-Palmer High School,3.0,,,Sunrise Elementary School,,169.59547629404088,29
2284725,390000.0,2021-01-13,1545 Chutney CT,80907,1944.0,5669.0,38.8920196,-104.8575701,Mesa Ridge High School,4.0,,,Sierra Vista Elementary School,,200.6172839506173,17
2936163,395000.0,2021-01-15,7872 Guinness WY,80951,3185.0,5500.0,38.8646995,-104.6808065,Liberty High School,2.0,,,Penrose Elementary School,,124.01883830455259,23
3145672,399000.0,2021-01-15,170 South Valley RD,80133,1204.0,4687.0,38.860858,-104.8694312,Power Technical Early College,3.0,,,Grant Elementary School,,331.3953488372093,36
2972318,400000.0,2021-01-15,11569 Avena RD,80831,2723.0,2723.0,38.9481742,-104.6132607,Pikes Peak Early College,0.0,,,Odyssey Elementary School,,146.89680499449136,16
4416875,401000.0,2021-01-12,5988 CORINTH DR,80923,2585.0,4500.0,38.9216399,-104.7321784,Pueblo West High School,3.0,,,Coperni 2,,155.1257253384913,25
8692067,403000.0,2021-01-13,7472 Candelabra DR,80925,2488.0,9396.0,38.7229903,-104.6781822,Launch High School,2.0,,,,,161.97749196141478,0
3452539,405000.0,2021-01-15,2419 Tempest DR,80939,2526.0,5500.0,38.86984289999999,-104.6762823,Colorado Springs Early Colleges,2.0,,,Evans International Elementary School,,160.33254156769596,16
2790433,405000.0,2021-01-15,2430 Marlborough RD,80909,2025.0,10214.0,38.8675661,-104.7711232,Power Technical Early College,1.0,,,Howbert Elementary School,,200.0,18
6595278,410000.0,2021-01-15,800 Rolling Park DR,80863,2184.0,20473.0,39.0002946,-105.0500108,Coronado High School,3.0,,,Mesa Elementary School,,187.72893772893772,32
1167335,415000.0,2021-01-11,6340 Lange DR,80918,3025.0,8050.0,38.9243999,-104.773539,Patriot High School,4.0,,,Woodmen Hills Elementary School,,137.1900826446281,53
8612820,416000.0,2021-01-13,2336 Creek Valley CR,80132,2758.0,1870.0,39.0828612,-104.866783,Vista Ridge High School,4.0,,,Monterey Elementary School,,150.83393763596808,14
3853077,420000.0,2021-01-07,6889 Sedgerock LN,80927,2807.0,6039.0,38.9295578,-104.6548825,Mesa Ridge High School,3.0,,,Venetucci Elementary School,,149.62593516209478,0
2912813,425000.0,2021-01-04,6614 Stingray LN,80925,3388.0,6154.0,38.7367424,-104.6342087,Power Technical Early College,2.0,,,King Elementary School,,125.44273907910272,7
9161735,430000.0,2021-01-08,830 Quail Lake CR,80906,2558.0,8321.0,38.7820247,-104.8113771,Nikola Tesla Education Opportunity Center,2.0,,,,,168.10007818608287,42
6252563,433000.0,2021-01-15,9827 Everglades DR,80831,3247.0,6750.0,38.9744841,-104.6013334,Woodland Park High School,3.0,,,Jordahl Elementary School,,133.35386510625193,11
2290676,435000.0,2021-01-15,1422 N Weber ST,80907,2440.0,9500.0,38.8544934,-104.8192287,Rampart High School,1.0,,,Trailblazer Elementary School,,178.27868852459017,54
5076229,440000.0,2021-01-11,8987 Oakmont DR,80831,3228.0,13853.0,39.016025,-104.7995979,Lewis-Palmer High School,5.0,,,Jordahl Elementary School,,136.3073110285006,20
2402401,449122.0,2021-01-11,6705 Windbrook CT,80927,3189.0,4850.0,38.929063,-104.657893,Vista Ridge High School,3.0,,,Edison Elementary School,,140.83474443399186,0
9495177,455000.0,2021-01-13,6862 Ocatillo VW,80817,3101.0,331056.0,38.576469,-104.711958,Mesa Ridge High School,,,,Mountain View Elementary School,,146.72686230248306,0
5792895,460000.0,2021-01-15,3480 HOOFPRINT RD,80831,1721.0,199069.0,38.8816119,-104.5968259,Harrison High School,0.0,,,Martin Luther King Junior Elementary School,,267.2864613596746,0
1176300,461000.0,2021-01-14,5552 Calamity Jane LN,80923,4103.0,8190.0,38.9139214,-104.6966605,Falcon High School,3.0,,,,,112.35681208871557,9
9105375,465000.0,2021-01-14,1922 Volterra WY,80921,1828.0,4675.0,39.0102216,-104.7911855,Community Prep Charter School,5.0,,,,,254.37636761487965,7
9175552,466000.0,2021-01-13,629 Orchestra DR,80906,2578.0,3705.0,38.765255,-104.8190599,The Classical Academy High School,2.0,,,,,180.76027928626843,54
8380644,470000.0,2021-01-12,7239 Gardenstone DR,80922,3363.0,6615.0,38.9002414,-104.692469,Vista Ridge High School,2.0,,,,,139.75617008623254,18
4701510,473000.0,2021-01-04,11090 4th ST,80863,2332.0,34848.0,38.9566385,-105.0265895,,3.0,,,,,202.83018867924528,13
7207026,475000.0,2021-01-14,7114 Quiet Pond PL,80923,4907.0,8800.0,38.9207586,-104.6973666,Patriot High School,3.0,,,,,96.80048909720807,4
1445062,479000.0,2021-01-14,604 E Espanola ST,80907,1964.0,9100.0,38.8591411,-104.8132008,Vista Ridge High School,1.0,,2.0,,,243.89002036659878,54
5380693,485000.0,2021-01-12,6206 Finglas DR,80923,3883.0,6739.0,38.9295662,-104.7097822,Tca College Pathways,3.0,,3.0,,,124.9034251867113,20
7605083,497500.0,2021-01-13,1628 Piney Hill PT,80132,3488.0,2320.0,39.1295236,-104.8566352,Harrison High School,5.0,,4.0,,,142.63188073394497,0
2544619,500000.0,2021-01-14,755 Royal Crown LN,80906,2558.0,6600.0,38.77088030000001,-104.8146598,Sand Creek High School,2.0,,2.0,,,195.46520719311962,54
4317095,500341.0,2021-01-12,2090 Zenato CT,80921,3880.0,12252.0,39.00738399999999,-104.783937,Woodland Park High School,5.0,,4.0,,,128.95386597938145,1
5788574,502500.0,2021-01-15,1719 N Tejon ST,80907,3179.0,9500.0,38.858494,-104.821686,Vista Ridge High School,1.0,,2.0,,,158.06857502359233,52
7672587,509000.0,2021-01-15,4911 Rock Creek DR,80109,3216.0,8276.0,38.70212679999999,-104.8403225,Community Prep Charter School,,,,,,158.27114427860695,4
9217394,510000.0,2021-01-13,6364 Galway DR,80918,3873.0,13850.0,38.9228595,-104.81082990000002,Vista Ridge High School,4.0,,4.0,,,131.68086754453913,20
8461826,529500.0,2021-01-15,8850 Link RD,80817,2640.0,435600.0,38.7027125,-104.6743382,Palmer Ridge High School,1.0,,3.0,,,200.5681818181818,0
8572116,530000.0,2021-01-15,510 ORION DR,80906,2252.0,12295.0,38.8202976,-104.8649358,Harrison High School,,,5.0,,,235.34635879218473,6
5532385,533300.0,2021-01-15,5375 Autumn Hills CT,80919,3039.0,11097.0,38.90943470000001,-104.846716,Tca College Pathways,4.0,,4.0,,,175.4853570253373,2
6105911,550000.0,2021-01-14,9708 Rockingham DR,80831,3520.0,43996.0,38.97281650000001,-104.634787,Community Prep Charter School,0.0,,3.0,,,156.25,0
5282104,560000.0,2021-01-11,15205 Churchill PL,80921,4008.0,14893.16,39.0530867,-104.8271076,,4.0,,4.0,,,139.72055888223554,12
3925073,560000.0,2021-01-12,61 Newport CR #61 & 63,80906,3669.0,12600.0,38.80253200000001,-104.831035,Civa Charter Academy,5.0,,5.0,,,152.63014445352957,35
9713030,605000.0,2021-01-15,16291 ST Lawrence WY,80132,3272.0,12828.42,39.0671965,-104.8234764,Welte Education Center,4.0,,4.0,,,184.90220048899755,1
5278707,606300.0,2021-01-13,3841 Eaton PK,80019,3640.0,10000.0,39.771632,-104.7038143,Zebulon Pike,1.0,,1.0,,,166.56593406593407,0
2453305,610000.0,2021-01-15,15889 Midland Valley WY,80132,3310.0,12824.0,39.0633087,-104.8239936,,4.0,,4.0,,,184.29003021148037,1
5882504,610000.0,2021-01-14,9506 Penstemon CT,80920,3386.0,9567.0,38.9674979,-104.7639214,Civa Charter Academy,4.0,,3.0,,,180.15357353809804,15
3153409,615000.0,2021-01-15,4296 New Santa Fe TR,80924,3800.0,8047.0,38.980152,-104.7452756,Patriot High School,5.0,,,,,161.8421052631579,17
4193027,635000.0,2021-01-08,10805 Thunderhead DR,80925,2960.0,348044.4,38.720275,-104.627322,Discovery Canyon Campus High School,3.0,,3.0,,,214.52702702702703,0
5250660,645000.0,2021-01-13,17990 Bakers Farm RD,80908,4521.0,33600.0,39.0919608,-104.7506043,The Vanguard School (High),4.0,,4.0,,,142.66755142667552,4
6031664,650000.0,2021-01-15,1003 E Boulder ST,80903,3258.0,9000.0,38.8386974,-104.8065898,Lewis-Palmer High School,1.0,Mann Middle School,2.0,,,199.50890116635972,73
2172611,674000.0,2021-01-13,175 E Kings Deer PT,80132,6128.0,33000.0,39.1143116,-104.8303679,Dr. Martin Luther King Junior Early College,5.0,Skyview Middle School,4.0,,,109.9869451697128,1
8438359,680000.0,2021-01-14,4145 Saddle Rock RD,80918,4466.0,17500.0,38.9116574,-104.7458501,Lewis-Palmer High School,2.0,Lewis-Palmer Middle School,2.0,,,152.2615315718764,5
2420849,700000.0,2021-01-14,201 E Las Animas ST #301,80903,2785.0,673.0,38.8228216,-104.8216587,Rampart High School,5.0,Fox Meadow Middle School,5.0,,,251.34649910233392,57
5431206,732500.0,2021-01-14,7502 Loch Fyne LN,80908,4909.0,108900.0,38.9628236,-104.685408,Pine Creek High School,3.0,Discovery Canyon Campus Middle School,,,,149.21572621715217,5
6146802,765000.0,2021-01-15,1231 Crown Haven CR,80919,5422.0,8800.0,38.922967,-104.848041,Fountain-Fort Carson High School,4.0,North Middle School,4.0,,,141.09184802655847,45
8217709,770000.0,2021-01-15,12583 Pensador DR,80921,5827.0,32828.0,39.0139326,-104.7895521,Discovery Canyon Campus High School,4.0,Carson Middle School,4.0,,4.0,132.14347005320062,3
5153099,775000.0,2021-01-15,14195 Timber TR,80118,3566.0,146754.0,39.155161,-104.908992,Community Prep Charter School,5.0,,4.0,,3.0,217.33034212002244,0
7103809,812500.0,2021-01-15,11950 Silver Concho TR,80106,4973.0,110642.0,39.005199,-104.572721,Palmer Ridge High School,3.0,Eagleview Middle School,3.0,,3.0,163.38226422682484,0
3854021,818091.0,2021-01-15,11826 Artful WY,80921,4434.0,8608.0,39.0052751,-104.81353409999998,Doherty High School,5.0,Janitell Junior High School,4.0,,4.0,184.5040595399188,13
2832148,849900.0,2021-01-13,900 Meadow LN,81040,4438.0,1488009.6,38.8889136,-104.79951,The Vanguard School (High),3.0,Cheyenne Mountain Junior High School,2.0,,3.0,191.50518251464624,14
1606079,850000.0,2021-01-14,2945 Brogans Bluff DR,80919,5687.0,20162.0,38.9189052,-104.8806261,Vista Ridge High School,4.0,Eagleview Middle School,4.0,,2.0,149.46368911552665,1
8680122,1375000.0,2021-01-14,916 Crooked Tree PL,80118,6532.0,127630.8,39.272589,-104.901765,Civa Charter Academy,,Falcon Middle School,,,3.0,210.5021432945499,1
2873885,152000.0,2021-01-15,875 8th ST,80808,980.0,4675.0,38.822683,-104.8402521,Discovery Canyon Campus High School,,Discovery Canyon Campus Middle School,5.0,,3.0,155.10204081632654,33
7418946,170000.0,2021-01-18,201 Porphyry ST,80813,1232.0,40510.8,38.7503609,-105.1758575,Palmer Ridge High School,1.0,Cheyenne Mountain Junior High School,,,1.0,137.98701298701297,25
7074004,175000.0,2021-01-14,528 Gaylord AV,81004,808.0,6250.0,38.2574924,-104.6424994,Falcon High School,1.0,Discovery Canyon Campus Middle School,1.0,,2.0,216.58415841584159,41
5264510,175000.0,2021-01-19,411 Lakewood CR #B432,80910,1152.0,1336.0,38.822578,-104.7589743,The Classical Academy High School,3.0,KIPP Northeast Denver Middle School,3.0,,0.0,151.90972222222223,52
9279534,193000.0,2021-01-15,4221 Crowells Mill SQ,80910,884.0,3800.0,38.8265917,-104.7503004,Launch High School,3.0,Discovery Canyon Campus Middle School,1.0,,1.0,218.32579185520362,39
2358078,195000.0,2021-01-21,6743 Overland DR,80919,1600.0,511.0,38.929923,-104.8186769,Colorado Springs Early Colleges,2.0,Mountain Ridge Middle School,4.0,,4.0,121.875,29
5017205,197000.0,2021-01-15,1511 Armenta RD,81022,1920.0,101059.0,38.2309386,-104.3428022,,,Chinook Trail Middle School,,,1.0,102.60416666666667,0
9695161,200000.0,2021-01-20,717 E Las Animas ST,80903,784.0,9500.0,38.82249789999999,-104.8125625,Zebulon Pike,5.0,,5.0,,,255.10204081632654,37
1089998,213000.0,2021-01-14,1504 Crestone AV #B,80905,1032.0,1032.0,38.812449,-104.8334003,,5.0,Janitell Junior High School,5.0,,4.0,206.3953488372093,53
2705881,215000.0,2021-01-21,2370 Stepping Stones WY,80904,936.0,301.0,38.850121,-104.853887,Cripple Creek-Victor Junior-Senior High School,3.0,Discovery Canyon Campus Middle School,3.0,,1.0,229.7008547008547,49
9780259,217000.0,2021-01-05,3525 Queen Anne WY,80917,1131.0,638.0,38.885004,-104.764252,Central High School,2.0,North Middle School,1.0,,3.0,191.86560565870911,52
4604144,220000.0,2021-01-19,3553 Queen Anne WY,80917,1102.0,638.0,38.885558,-104.7637589,Atlas Preparatory High School,2.0,Lewis-Palmer Middle School,1.0,,3.0,199.63702359346644,58
1526037,226000.0,2021-01-19,1635 Luna DR,80817,1632.0,6720.0,38.72896799999999,-104.7301506,Atlas Preparatory High School,2.0,Russell Middle School,2.0,,2.0,138.48039215686273,26
1698774,228000.0,2021-01-20,1206 Florence AV,80905,894.0,6000.0,38.7991112,-104.8059629,Aspen Valley Campus,1.0,The Vanguard School (Middle),5.0,,2.0,255.03355704697987,46
8568116,230238.0,2021-01-15,11 S Hayman AV,80910,1618.0,9348.0,38.8320137,-104.778462,,0.0,Chinook Trail Middle School,1.0,,0.0,142.29789864029667,54
8989065,232200.0,2021-01-19,3665 Strawberry Field GR #C,80906,1137.0,538.0,38.777529,-104.8079348,The Vanguard School (High),2.0,,2.0,,2.0,204.221635883905,56
5836218,235000.0,2021-01-18,321 Laclede AV,80905,1060.0,6500.0,38.8073133,-104.8350875,The Vanguard School (High),5.0,Eagleview Middle School,5.0,,4.0,221.69811320754718,61
7460429,236030.0,2021-01-15,17255 County Road 59 RD,80827,1152.0,1742400.0,38.9764867,-105.5909969,Coronado High School,,Discovery Canyon Campus Middle School,,,,204.88715277777777,0
5104172,240000.0,2021-01-18,2014 Creekridge PT,80910,1306.0,1017.0,38.803043,-104.7779429,Doherty High School,1.0,Lewis-Palmer Middle School,,,1.0,183.76722817764164,32
4588820,248900.0,2021-01-15,4609 Ports Down LN,80911,1501.0,966.0,38.7685521,-104.741083,Doherty High School,1.0,Falcon Middle School,,,,165.8227848101266,36
8805666,248900.0,2021-01-15,4615 Ports Down LN,80911,1501.0,966.0,38.7685521,-104.741083,Mesa Ridge High School,1.0,The Classical Academy Middle School,,,,165.8227848101266,36
8561055,258500.0,2021-01-19,3571 El Morro RD,80910,1344.0,6800.0,38.8016823,-104.7625084,Career Readiness Academy,1.0,Mann Middle School,,,1.0,192.33630952380952,60
2151444,259900.0,2021-01-20,3600 S Pierce ST #2-103,80235,1024.0,1024.0,39.6513075,-105.0713134,Eastlake High School Of Colorado Springs,3.0,Eagleview Middle School,2.0,The Da Vinci Academy School,3.0,253.80859375,34
2916454,259900.0,2021-01-15,6825 Cory PL,80915,960.0,6970.0,38.8616055,-104.7012165,Harrison High School,2.0,,3.0,Palmer Lake Elementary School,2.0,270.7291666666667,30
2167634,260000.0,2021-01-20,1803 McArthur AV,80909,2494.0,7573.0,38.8578306,-104.7846615,The Vanguard School (High),1.0,The Vanguard School (Middle),1.0,Pikes Peak School Expeditionary Learning,4.0,104.25020048115478,44
7034083,260000.0,2021-01-14,119 N 13th ST,80904,1024.0,9000.0,38.8395182,-104.8432046,,,,3.0,The Da Vinci Academy School,3.0,253.90625,51
3563691,264000.0,2021-01-15,3575 Ironwood PL,80910,1200.0,7200.0,38.8070289,-104.7610499,Career Readiness Academy,3.0,Pueblo Academy Of Arts,,Edison Elementary School,1.0,220.0,58
5265424,265000.0,2021-01-19,1312 Paula CR,80132,1089.0,1530.0,39.0910126,-104.8530551,Discovery High School,4.0,Atlas Preparatory Middle School,4.0,Trailblazer Elementary School,2.0,243.3425160697888,31
9691554,270000.0,2021-01-20,39 Miller DR,80816,946.0,43560.0,38.9395272,-105.3227344,Discovery High School,,Jack Swigert Aerospace Academy,,Larkspur Elementary School,,285.4122621564482,0
6997720,275000.0,2021-01-20,1822 Whitman RD,80910,1296.0,7638.0,38.82135630000001,-104.7929128,Sierra High School,0.0,Eagleview Middle School,5.0,Buena Vista Elementary School,1.0,212.19135802469137,27
8285587,275000.0,2021-01-19,650 Calle Del Sol,80816,1848.0,97574.0,38.8711922,-105.2750033,Addenbrooke Classical Academy,,,,Cresson Elementary School,,148.8095238095238,0
9956870,276000.0,2021-01-21,6235 Calico Patch HT,80923,1256.0,1275.0,38.9242578,-104.711648,Power Technical Early College,3.0,The Vanguard School (Middle),3.0,Heritage Elementary School,4.0,219.74522292993632,40
3347723,280000.0,2021-01-20,6226 Sierra Grande PT,80923,1256.0,1275.0,38.92544609999999,-104.711985,Achieve Online,3.0,The Vanguard School (Middle),3.0,Monroe Elementary School,4.0,222.9299363057325,40
7340138,280000.0,2021-01-20,617 Wheat Field RD,80817,1548.0,6000.0,38.6904143,-104.69092,Zebulon Pike,1.0,West Middle School,2.0,Roosevelt Charter Academy,3.0,180.87855297157623,16
9949736,280000.0,2021-01-20,819 Red Thistle VW,80916,1770.0,1358.0,38.819791,-104.728887,,3.0,Sabin Middle School,1.0,Rockrimmon Elementary School,3.0,158.19209039548022,3
8624167,280000.0,2021-01-20,1703 Maxwell ST,80906,1105.0,6000.0,38.7606382,-104.7638986,Atlas Preparatory High School,1.0,Sabin Middle School,,Avondale Elementary School,,253.39366515837105,0
4217057,285000.0,2021-01-19,688 Cima Vista PT,80916,2120.0,1742.4,38.822152,-104.750099,Lewis-Palmer High School,3.0,Watson Junior High School,3.0,Coperni 2,3.0,134.43396226415095,23
7980545,285000.0,2021-01-19,1768 Carmel DR,80910,1666.0,7680.0,38.805917,-104.7672032,,1.0,The Vanguard School (Middle),,,1.0,171.06842737094837,30
2888906,285000.0,2021-01-21,1219 Maxwell ST,80906,1608.0,7514.0,38.770059,-104.7741772,Eastlake High School Of Colorado Springs,2.0,Jack Swigert Aerospace Academy,,The Vanguard School (Elementary),,177.23880597014926,9
9604114,290000.0,2021-01-19,2004 Trent AV,80909,2258.0,8100.0,38.8618364,-104.7709408,,4.0,Fox Meadow Middle School,1.0,West Elementary School,2.0,128.43224092116918,38
7923178,296000.0,2021-01-15,3078 Harpy GR,80916,2066.0,1340.0,38.78759,-104.737632,Vista Ridge High School,4.0,Cheyenne Mountain Junior High School,4.0,Grant Elementary School,4.0,143.27202323330107,15
7333723,297000.0,2021-01-20,4311 Wendy CT,80916,1568.0,8100.0,38.827427,-104.7470123,Vista Ridge High School,3.0,,1.0,Grant Elementary School,1.0,189.41326530612244,38
6463321,297845.0,2021-01-15,5361 Mountain Vista HT,80924,1307.0,2144.0,38.9589157,-104.7260488,Welte Education Center,4.0,Carmel Middle School,4.0,Talbott Steam Innovation School,4.0,227.88446824789594,22
1669095,298370.0,2021-01-20,7525 Forest Meadows AV,80908,1561.0,1716.0,38.9437006,-104.6918238,Atlas Preparatory High School,3.0,,3.0,Stratton Meadows Elementary School,2.0,191.1402946828956,3
6001265,299900.0,2021-01-20,204 Junior CT,81226,1530.0,9394.0,38.8338816,-104.8213634,Discovery High School,,Sproul Junior High School,2.0,Rogers Elementary School,,196.01307189542484,74
1999845,300000.0,2021-01-20,335 Briggs PL,80911,1333.0,7379.0,38.7473311,-104.7327481,Atlas Preparatory High School,,,2.0,Otero Elementary School,3.0,225.0562640660165,25
2980663,300000.0,2021-01-19,2120 palm DR,80918,1911.0,1019.0,38.89268800000001,-104.788015,Sierra High School,,Sproul Junior High School,2.0,Skyway Park Elementary School,3.0,156.98587127158555,0
4092706,305000.0,2021-01-19,4520 Morning Mist DR,80916,1424.0,4526.0,38.78357630000001,-104.74405,Harrison High School,,,4.0,,4.0,214.18539325842696,18
7236047,305000.0,2021-01-15,1931 Cadillac AV,80909,1987.0,8500.0,38.8609445,-104.7713511,Odyssey Early College And Career Options,,Carmel Middle School,1.0,Monterey Elementary School,2.0,153.49773527931555,46
5476011,307000.0,2021-01-19,3018 W Monica DR,80916,1833.0,5902.0,38.788161,-104.7472857,James Irwin Charter High School,,,1.0,Widefield District 3 Preschool,2.0,167.4849972722313,49
6156975,310000.0,2021-01-20,323 Poe PL,80910,1302.0,7800.0,38.826393,-104.7523332,Atlas Preparatory High School,,Bear Valley International School,1.0,,1.0,238.0952380952381,44
3892515,310000.0,2021-01-19,2140 GRAFTON DR,80916,1308.0,6821.0,38.8015617,-104.7450982,Liberty High School,,Horizon Middle School,1.0,Widefield District 3 Preschool,1.0,237.00305810397555,44
7405473,310000.0,2021-01-15,7584 Barn owl DR,80817,1473.0,6009.0,38.6680703,-104.6851343,Vista Ridge High School,,Galileo School Of Math And Science,2.0,,2.0,210.45485403937542,3
6043317,310978.0,2021-01-19,7515 Forest Meadows AV,80908,1561.0,1716.0,38.9437006,-104.6918238,,,West Middle School,3.0,Centennial Elementary School,2.0,199.21716848174248,3
2257587,311000.0,2021-01-20,2758 Ferber DR,80916,2146.0,6600.0,38.7928029,-104.7485163,,,Carmel Middle School,1.0,Addenbrooke Classical Grammar School,2.0,144.92078285181734,41
8141439,312500.0,2021-01-20,4970 Weaver DR,80922,2308.0,8849.0,38.9047489,-104.6943825,,,,3.0,Evans International Elementary School,3.0,135.39861351819758,17
9347165,313500.0,2021-01-19,4509 E Eastcrest CR,80916,1064.0,10639.0,38.83171189999999,-104.7447791,,,Lewis-Palmer Middle School,1.0,James Irwin Charter Academy,1.0,294.64285714285717,36
5783255,315000.0,2021-01-14,4830 Goulet WY,80911,1492.0,6099.0,38.7614258,-104.7327025,,,,,Buena Vista Elementary School,2.0,211.12600536193028,4
3945270,315000.0,2021-01-08,902 Fontmore RD #B,80904,1509.0,838.0,38.863822,-104.864449,,,The Vanguard School (Middle),3.0,Centennial Elementary School,3.0,208.74751491053678,22
2797842,317000.0,2021-01-15,7309 Loveland AV,80817,1786.0,11366.0,38.7277443,-104.6925146,,,,3.0,Monument Charter Academy,3.0,177.491601343785,14
9709956,320000.0,2021-01-20,911 Rancher DR,80817,1744.0,6690.0,38.6660972,-104.6757955,,,Skyview Middle School,2.0,Lake George Charter School,2.0,183.4862385321101,3
9221556,320000.0,2021-01-14,1323 Shasta DR,80910,1946.0,9000.0,38.8124405,-104.7705762,,,Skyview Middle School,,,2.0,164.4398766700925,37
1846587,320000.0,2021-01-19,14250 Fitz PT,80808,4560.0,1742400.0,38.8338816,-104.8213634,,,Fountain Middle School,2.0,Adams Elementary School,,70.17543859649123,74
1017797,322785.0,2021-01-19,7505 Forest Meadows AV,80908,2011.0,2117.0,38.9437006,-104.6918238,,,Panorama Middle School,3.0,,2.0,160.5096966683242,3
1160766,323000.0,2021-01-14,2105 Ambleside DR,80915,1064.0,7117.0,38.8633319,-104.7024011,,,Sproul Junior High School,3.0,Ridgeview Elementary School,2.0,303.57142857142856,36
4313313,325000.0,2021-01-19,7378 Owings PT,80831,2238.0,3195.0,38.938852,-104.605212,,0.0,,3.0,Ridgeview Elementary School,3.0,145.218945487042,55
9148712,330000.0,2021-01-15,8278 Firethorn DR,80925,2418.0,6906.0,38.7287087,-104.6737,,2.0,Atlas Preparatory Middle School,,Eagleside Elementary School,3.0,136.47642679900744,0
9976568,330000.0,2021-01-15,4679 Canyon Wren LN,80916,1439.0,4679.0,38.8285112,-104.7419991,,3.0,Carmel Middle School,,Wildflower Elementary School,3.0,229.32592077831828,24
5750713,331395.0,2021-01-19,7535 Forest Meadows AV,80908,2011.0,2117.0,38.9437006,-104.6918238,,3.0,,,Pinello Elementary School,2.0,164.79114868224764,3
9086487,335000.0,2021-01-21,7255 Roaring Spring TE,80817,2200.0,9306.0,38.7307963,-104.6936991,,2.0,Sproul Junior High School,,,4.0,152.27272727272728,8
9993178,335000.0,2021-01-19,2047 Patrician WY,80909,1719.0,8625.0,38.8617956,-104.779009,,4.0,,,Sand Creek International Elementary School,4.0,194.8807446189645,45
7622468,340000.0,2021-01-21,1237 Timber Run HT,80132,1625.0,1731.0,39.08028400000001,-104.849995,,4.0,Galileo School Of Math And Science,,Centennial Elementary School,2.0,209.23076923076923,4
4772471,340000.0,2021-01-20,4683 Skywriter CR,80922,2005.0,7824.0,38.9005188,-104.7158423,,2.0,James Irwin Charter Middle School,,Pinello Elementary School,2.0,169.57605985037407,35
2192558,340000.0,2021-01-12,4879 S Splendid CR,80917,2191.0,7200.0,38.891025,-104.736895,,2.0,Jack Swigert Aerospace Academy,,,1.0,155.18028297581014,44
7265164,342000.0,2021-01-21,1204 N Chelton RD,80909,1914.0,8030.0,38.8491325,-104.76688409999998,Patriot High School,1.0,Timberview Middle School,,Globe Charter School,1.0,178.6833855799373,72
4425620,342500.0,2021-01-19,4062 Silver Star GR,80911,2266.0,4041.0,38.76248289999999,-104.7514786,Mesa Ridge High School,1.0,Skyview Middle School,,Soaring Eagles Elementary School,,151.14739629302736,17
7629416,343000.0,2021-01-19,1415 Legend Oak DR,80817,2590.0,5400.0,38.70487840000001,-104.6855898,Atlas Preparatory High School,1.0,North Middle School,,Roosevelt Charter Academy,2.0,132.43243243243242,1
7827073,345000.0,2021-01-19,9643 Yukon WY,80925,1439.0,5909.0,38.7671435,-104.651026,Vista Ridge High School,2.0,Watson Junior High School,,Ranch Creek Elementary,,239.74982626824183,2
1351525,345000.0,2021-01-19,4719 Ranch CR,80918,2121.0,8300.0,38.9030952,-104.7743595,Mesa Ridge High School,2.0,Russell Middle School,,Grand Peak Academy,2.0,162.65912305516267,75
6833018,349900.0,2021-01-13,2861 Buttermilk CR,80918,2028.0,8450.0,38.9199479,-104.7730832,Odyssey Early College And Career Options,4.0,James Irwin Charter Middle School,,Coperni 2,2.0,172.53451676528599,39
6308001,350000.0,2021-01-20,2115 N Circle DR,80909,2168.0,6600.0,38.8634242,-104.7753623,Lewis-Palmer High School,4.0,Galileo School Of Math And Science,,,2.0,161.4391143911439,40
7256441,350000.0,2021-01-15,3935 Shining Star DR,80925,2566.0,6011.0,38.7743926,-104.6507886,Sand Creek High School,4.0,Panorama Middle School,,Widefield Elementary School of the Arts,,136.39906469212784,7
5066041,350000.0,2021-01-13,36450 Hanisch RD,80808,3712.0,1716264.0,38.97013219999999,-104.1508463,Doherty High School,,Jack Swigert Aerospace Academy,,Grant Elementary School,,94.28879310344827,0
9506282,355000.0,2021-01-19,7503 Araia DR,80817,2109.0,6609.0,38.698548,-104.686987,Mitchell High School,1.0,Panorama Middle School,,Soaring Eagles Elementary School,3.0,168.3262209577999,7
9476779,355000.0,2021-01-19,84 Dillon Lake CR,80814,1754.0,43995.6,38.9524238,-105.1999871,Discovery High School,,Fountain Middle School,,Globe Charter School,2.0,202.3945267958951,0
9279841,355000.0,2021-01-19,1225 Valkenburg DR,80907,1590.0,9262.0,38.8854978,-104.8453479,Welte Education Center,4.0,Skyview Middle School,,Turman Elementary School,2.0,223.27044025157232,32
6442274,355000.0,2021-01-20,2142 McCleary LN,80817,2566.0,6752.0,38.7058784,-104.6912389,Mesa Ridge High School,1.0,Panorama Middle School,,Roosevelt Charter Academy,2.0,138.3476227591582,7
6609945,355000.0,2021-01-20,7553 Alpine Daisy DR,80925,1462.0,7500.0,38.72257,-104.65774240000002,Doherty High School,2.0,Skyview Middle School,,Bricker Elementary School,3.0,242.81805745554036,0
8981473,355000.0,2021-01-19,4790 Turquoise CR,80917,1832.0,9922.0,38.9018629,-104.7392648,Rampart High School,2.0,Jack Swigert Aerospace Academy,,Jordahl Elementary School,1.0,193.77729257641923,41
5315237,356394.0,2021-01-18,7491 Hunter Jumper DR,80922,1304.0,2086.0,38.8693657,-104.6897768,Odyssey Early College And Career Options,2.0,Sproul Junior High School,,Grand Peak Academy,4.0,273.30828220858893,15
7595623,360000.0,2021-01-20,11788 Sedge CT,80831,1869.0,5671.0,38.94955110000001,-104.6116095,James Irwin Charter High School,0.0,,,Giberson Elementary School,3.0,192.6163723916533,15
4109915,360000.0,2021-01-15,5585 Escondido DR,80918,1640.0,7884.36,38.9128239,-104.7820324,,2.0,Holmes Middle School,,Stetson Elementary School,2.0,219.5121951219512,59
4229079,360000.0,2021-01-13,17570 Sage Crest RD,80831,1782.0,109336.0,38.8832493,-104.5026082,Welte Education Center,,Janitell Junior High School,,Roosevelt Charter Academy,,202.02020202020202,0
9139707,360000.0,2021-01-15,6398 Zermatt DR,80915,2894.0,7242.0,38.8676649,-104.7081875,,5.0,Fountain Middle School,,French Elementary School,,124.3953006219765,47
9554639,360000.0,2021-01-18,1706 Grant AV,80909,2884.0,6316.2,38.856297,-104.7795104,Colorado Springs Early Colleges,1.0,Carmel Middle School,,Howbert Elementary School,,124.82662968099861,55
7887505,360000.0,2021-01-19,6905 Silverheels CT,80911,3113.0,25800.59,38.7310652,-104.7006698,Welte Education Center,2.0,,,Sunrise Elementary School,,115.64407324124639,11
6814793,361000.0,2021-01-19,4218 Nottingham PL,80907,1627.0,7425.0,38.8941467,-104.8411525,Mesa Ridge High School,4.0,North Middle School,,Jordahl Elementary School,,221.88076213890596,57
3698005,367500.0,2021-01-15,5847 Moon Ridge DR,80922,2319.0,5541.0,38.9030384,-104.7183029,Doherty High School,2.0,Skyview Middle School,,Pikes Peak Elementary School,,158.47347994825355,31
8995792,368000.0,2021-01-20,7417 Benecia DR,80817,1676.0,4443.0,38.671797,-104.690909,Power Technical Early College,3.0,Horizon Middle School,,Coperni 2,,219.57040572792363,2
8126226,375000.0,2021-01-19,2515 N Nevada AV,80907,1848.0,9500.0,38.868605,-104.81925,Patriot High School,3.0,Falcon Middle School,,,,202.92207792207793,72
8788389,375000.0,2021-01-15,798 Progress DR,80817,1984.0,9945.0,38.6719466,-104.6798954,Doherty High School,3.0,,,Grand Peak Academy,,189.01209677419354,5
2521900,375000.0,2021-01-19,829 Dirksland ST,80907,2160.0,8016.0,38.8907916,-104.8362275,,4.0,,,Evans International Elementary School,,173.61111111111111,35
8107898,375000.0,2021-01-14,6652 Young Oak GR,80923,2500.0,174.24,38.928626,-104.727868,Pikes Peak Early College,3.0,,,Falcon Elementary School Of Technology,,150.0,31
7739673,375000.0,2021-01-08,4239 Hessite LP,80938,2516.0,3458.0,38.8939844,-104.679417,Achieve Online,2.0,,,Sunrise Elementary School,,149.04610492845788,1
2334853,376000.0,2021-01-15,1268 Canoe Creek DR,80906,2624.0,6000.0,38.7735011,-104.8045838,Mesa Ridge High School,2.0,,,Sand Creek International Elementary School,,143.29268292682926,16
7639612,380000.0,2021-01-19,3935 Thundercloud DR,80920,2110.0,7150.0,38.9524134,-104.7528004,Colorado Springs Early Colleges,4.0,,,Grand Peak Academy,,180.09478672985782,12
6723467,380000.0,2021-01-19,6035 Dancing Sun WY,80911,3123.0,5533.0,38.7651519,-104.7131572,Doherty High School,1.0,,,Martin Luther King Junior Elementary School,,121.67787383925713,0
4745275,382000.0,2021-01-19,506 Valley RD,80904,1340.0,7350.0,38.857261,-104.8693827,Fountain-Fort Carson High School,3.0,,,James Irwin Charter Academy,,285.07462686567163,51
6387301,382837.0,2021-01-14,2710 W Pikes Peak AV,80904,1307.0,3120.0,38.8502032,-104.8652779,Launch High School,3.0,,,Monument Charter Academy,,292.91277735271615,77
5298053,385000.0,2021-01-19,12883 Pine Valley CR,80831,2844.0,7972.0,38.962792,-104.600657,Fountain-Fort Carson High School,3.0,,,Odyssey Elementary School,,135.37271448663853,3
4271478,385000.0,2021-01-15,6269 Hartman DR,80923,2020.0,5808.0,38.9221531,-104.7112403,Colorado Springs Early Colleges,3.0,,,Carver Elementary School,,190.59405940594058,22
2711923,385000.0,2021-01-19,6075 Little Johnny DR,80918,2691.0,8102.0,38.9181133,-104.7786443,Vista Ridge High School,4.0,,,Twain Elementary School,,143.06949089557784,37
1301861,385000.0,2021-01-15,4235 Ramblewood DR,80920,2225.0,8466.0,38.9413443,-104.7476503,Sand Creek High School,4.0,,,Widefield District 3 Preschool,,173.03370786516854,36
3700853,388000.0,2021-01-19,5305 Mira Loma CR,80918,2472.0,9200.0,38.9089815,-104.7637433,Harrison High School,2.0,,,,,156.957928802589,49
2045111,390000.0,2021-01-20,6226 San Mateo DR,80911,2509.0,6649.0,38.7608363,-104.7084361,Liberty High School,2.0,,,Mesa Elementary School,,155.44041450777203,0
1545817,391600.0,2021-01-15,964 N Cimarron DR,81007,3234.0,46609.2,38.8263135,-104.8060224,Discovery High School,3.0,,,Grand Mountain School,,121.08843537414965,31
1333728,395000.0,2021-01-14,732 N Spruce ST,80905,1716.0,6000.0,38.8437126,-104.8327163,Coronado High School,3.0,,,,,230.1864801864802,28
8013303,395000.0,2021-01-19,680 Red Feather LN,80863,1878.0,18731.0,39.0032256,-105.0598284,Coronado High School,3.0,,,Fremont Elementary School,,210.33013844515443,33
8150522,396000.0,2021-01-14,2044 Bucolo AV,80951,3185.0,6000.0,38.86162849999999,-104.6806359,Falcon High School,2.0,,,King Elementary School,,124.33281004709576,20
4088985,398000.0,2021-01-20,12834 Pine Valley CR,80831,3362.0,8375.0,38.9625438,-104.5995122,Vista Ridge High School,3.0,,,Globe Charter School,,118.38191552647234,2
8779294,400000.0,2021-01-21,397 Golden Cycle CR,80813,1896.0,94090.0,38.8066491,-105.2085375,Rampart High School,1.0,,,Grand Mountain School,,210.9704641350211,0
